SiteID,Index,LON,LAT,ACSP,AISP,EphSP,PleSP,TriSP,ChiSP,otherSP,Emerg,Units,Notes,Stream width (m),Basin size (km2),figure_table,ele_mean,r_mean,k_mean,bd_mean,cf_mean,ph05_mean,ph15_mean,lit_majority,min_mean,HYBAS_ID,crop,forest.c,forest.o,nodata,shrub.grass,urban,water,tmp_dc_smx,pre_mm_syr,slp_dg_uav,ero_kh_uav,run_mm_syr,ppd_pk_uav,tmp_dc_syr,ele_mt_sav,dis_m3_pyr,for_pc_sse,crp_pc_sse,hft_ix_s93,hft_ix_u93,hft_ix_s09,hft_ix_u09
Al-Zankana_2021_Control_2015,,-0.909979,52.476865,3452.4,811,55.6,,,728.7,26.7,,mg DM m-2 y-1,"River Welland, control reach, 2015 sampling. EPT values are combined in paper; entered here in EphSp column. Stream width is the average value of ranges provided (2.7-4.1 m).",3.4,1554,Table 2,104.5941723,374.124363,0.029083215,1.342218673,36.4078125,67.83703704,67.18518519,9,,2121109130,77.67,0.16,5.48,0,6.77,9.92,0,168,631,22,834,319,137.5350037,94,115,2.874000072,0,67,251,281,224,258
Al-Zankana_2021_Control_2016,,-0.909979,52.476865,3056.3,846.4,76.1,,,748.3,22,,mg DM m-2 y-1,"River Welland, control reach, 2016 sampling. EPT values are combined in paper; entered here in EphSp column. Stream width is the average value of ranges provided (2.7-4.1 m).",3.4,1554,Table 2,104.5941723,374.124363,0.029083215,1.342218673,36.4078125,67.83703704,67.18518519,9,,2121109130,77.67,0.16,5.48,0,6.77,9.92,0,168,631,22,834,319,137.5350037,94,115,2.874000072,0,67,251,281,224,258
Al-Zankana_2021_Ref_2015,,-0.972636,52.473637,11234.8,3574.9,2315,,,386.7,873.2,,mg DM m-2 y-1,"River Welland, reference reach, 2015 sampling. EPT values are combined in paper; entered here in EphSp column. Stream width is the average value of ranges provided (2.7-4.1 m).",3.4,1554,Table 2,121.2453231,381.9605637,0.029109607,1.334861093,38.02083333,66.76923077,66.04895105,12,,2121110490,76.49,0.56,5.77,0,10.97,6.22,0,165,644,14,585,336,210.0939941,93,132,2.602999926,0,61,293,293,272,272
Al-Zankana_2021_Ref_2016,,-0.972636,52.473637,11562.1,4155.3,2653.1,,,418.8,1083.4,,mg DM m-2 y-1,"River Welland, reference reach, 2016 sampling. EPT values are combined in paper; entered here in EphSp column. Stream width is the average value of ranges provided (2.7-4.1 m).",3.4,1554,Table 2,121.2453231,381.9605637,0.029109607,1.334861093,38.02083333,66.76923077,66.04895105,12,,2121110490,76.49,0.56,5.77,0,10.97,6.22,0,165,644,14,585,336,210.0939941,93,132,2.602999926,0,61,293,293,272,272
Anderson_Rosemond_2007_MejillonesBeaverPond,,-67.655,-55.076,12589,,,,,,,,mg AFDM m-2 yr-1,Measures beaver impact.,29.6,,"Table 3, Appendix 3",332.0220126,635.8678432,,1.187583339,21.43333321,57.86754967,58.43046358,12,,6120036110,0,28.96,0.17,0,67.74,0,3.13,84,559,96,2505,416,0.180000007,48,189,2.792000055,43,0,0,0,0,0
Anderson_Rosemond_2007_MejillonesDownstream,,-67.655,-55.076,2704,,,,,,,,mg AFDM m-2 yr-1,Measures beaver impact.,6.6,,"Table 3, Appendix 3",332.0220126,635.8678432,,1.187583339,21.43333321,57.86754967,58.43046358,12,,6120036110,0,28.96,0.17,0,67.74,0,3.13,84,559,96,2505,416,0.180000007,48,189,2.792000055,43,0,0,0,0,0
Anderson_Rosemond_2007_MejillonesForested,,-67.655,-55.076,2456,,,,,,,,mg AFDM m-2 yr-1,Forested site.,6.6,,"Table 3, Appendix 3",332.0220126,635.8678432,,1.187583339,21.43333321,57.86754967,58.43046358,12,,6120036110,0,28.96,0.17,0,67.74,0,3.13,84,559,96,2505,416,0.180000007,48,189,2.792000055,43,0,0,0,0,0
Anderson_Rosemond_2007_RobaloBeaverPond,159,-67.655,-55.076,7530,,,,,,,,mg AFDM m-2 yr-1,Measures beaver impact.,29.6,,"Table 3, Appendix 3",332.0220126,635.8678432,,1.187583339,21.43333321,57.86754967,58.43046358,12,,6120036110,0,28.96,0.17,0,67.74,0,3.13,84,559,96,2505,416,0.180000007,48,189,2.792000055,43,0,0,0,0,0
Anderson_Rosemond_2007_RobaloDownstream,160,-67.655,-55.076,5627,,,,,,,,mg AFDM m-2 yr-1,Measures beaver impact.,6.6,,"Table 3, Appendix 3",332.0220126,635.8678432,,1.187583339,21.43333321,57.86754967,58.43046358,12,,6120036110,0,28.96,0.17,0,67.74,0,3.13,84,559,96,2505,416,0.180000007,48,189,2.792000055,43,0,0,0,0,0
Anderson_Rosemond_2007_RobaloForested,158,-67.655,-55.076,2263,,,,,,,,mg AFDM m-2 yr-1,Forested site.,6.6,,"Table 3, Appendix 3",332.0220126,635.8678432,,1.187583339,21.43333321,57.86754967,58.43046358,12,,6120036110,0,28.96,0.17,0,67.74,0,3.13,84,559,96,2505,416,0.180000007,48,189,2.792000055,43,0,0,0,0,0
Baekken_EtAl_1976_Ekso_Station1,,6.235,60.829,3483,,,,,,,,mg DM m-2 yr-1,Downstream of weir basin. Other sites in paper are included with the Fjellheim et al. data.,28,,Table 2,931.2571332,2081.530061,0.027074519,1.302131283,9.078125,51.91160221,52.3480663,4,,2120224160,0,0.94,2.08,0,96.64,0,0.33,97,2566,170,10269,2210,7.967000008,23,856,9.862999916,21,0,52,52,50,50
Baekken_EtAl_1976_Ekso_Station4,,6.242,60.827,2176,,,,,,,,mg DM m-2 yr-1,Within weir basin. Other sites in paper are included with the Fjellheim et al. data.,28,,Table 2,948.2506831,2075.326925,0.027183061,1.309692731,8.856770833,51.91847826,52.33695652,4,,2120224160,0,0.89,1.96,0,96.89,0,0.26,97,2566,170,10269,2210,7.967000008,23,856,9.862999916,21,0,52,52,50,50
Benke_EtAl_1984_SatillaRiver_Lower,1,-81.86,31.13,15660,12766,54,44,1180,9072,,,mg DM m-2 yr-1,"Applied habitat proportions from the text for snag:sand:mud habitat from pp50. Data are also available for Odonata, Coleoptera, and Oligochaeta. Width data probably an underestimate; likely excludes backwater """"mud"""" habitat. Says basin size """"more than double[s]"""" from upper to lower site.",70,,"Tables 4, 5, 6, 7, 8, 9, 10, 12, 13, 14, 15",19.6875,6308.947588,0.011888112,1.426666975,18,48.7047619,49.26666667,5,,7120740920,0,83,7.56,0,9.42,0.01,0,274,1306,6,169,339,6.03399992,196,12,1.488999963,100,2,56,56,62,62
Benke_EtAl_1984_SatillaRiver_Upper,2,-82.36,31.28,30489,28327,36,60,738,22144,,,mg DM m-2 yr-1,"Applied habitat proportions from the text for snag:sand:mud habitat from pp50. Data are also available for Odonata, Coleoptera, and Oligochaeta. Width data probably an underestimate; likely excludes backwater """"mud"""" habitat. Says basin size """"more than double[s]"""" from upper to lower site.",50,,"Tables 4, 5, 6, 7, 8, 9, 10, 12, 13, 14, 15",40.91706731,6101.369901,0.010492838,1.426666975,18,50.24761905,50.38095238,5,,7120737060,8.2,43.8,31.94,0,11.96,4.08,0.03,274,1265,5,1497,384,17.28800011,192,38,14.46000004,44,47,152,82,165,81
Benke_Wallace_2015_OgeecheeRiver_1982,3,-81.416667,32.15,67.36,56.44,7.43,1.27,14.2,24.77,8.76,,g DM m-2 y-1,Per m-2 of river bed for snags plus sediments.,,,Figure 4,19.71875,5690.193235,0.015041034,1.426666975,18,48.57281553,48.91262136,5,,7121150160,0.09,64.82,17.58,0,15.71,1.39,0.41,275,1237,7,373,335,49.65000153,189,23,1.77699995,97,3,123,123,143,143
Beracko_Revajová_2019,,19.583028,49.005333,25798.73,,1971.51,522.21,841.82,,,,mg DM m-2 y-1,Karst spring “Vyvieranie”.,2.5,,Table 2,1051.725926,738.0904147,0.029539661,1.349576433,19.01145808,53.98507463,54.07462687,12,0.044976536,2120452680,10.01,72.93,9.47,0,5.94,1.65,0,144,1033,151,1102,483,57.15200043,50,917,22.5170002,61,23,157,121,154,116
Bright_1982_Outcrop,,134.564146,7.375551,7.31,0.11,0,0,0,0.011,0.099,,g DM m-2 y-1,Averaged ranges of production estimates.,12,3.5,Table 3,36.96942935,7041.817041,0.019170897,,,50.33898305,50.71186441,,,5120054940,0,56.07,2.9,0.64,1.58,1.69,37.12,277,3526,35,15,1209,35.89899826,273,52,16.35400009,63,9,97,91,90,88
Bright_1982_Riffle,,134.564146,7.375551,0.62,0.0225,0.007,0,0,0.0115,0.004,,g DM m-2 y-1,Averaged ranges of production estimates.,,3.5,Table 3,36.96942935,7041.817041,0.019170897,,,50.33898305,50.71186441,,,5120054940,0,56.07,2.9,0.64,1.58,1.69,37.12,277,3526,35,15,1209,35.89899826,273,52,16.35400009,63,9,97,91,90,88
Buffagni_2001,,9.453521,45.952369,1853,1853,1057,442,98,,257,,mg DM m-2 y-1,Alpine river Italy. Used riffle values only as the majority of the habitat.,4,,Table 1,1075.667308,2186.390155,0.026487818,1.393298467,14.04861111,59.432,59.728,12,,2121178740,2.28,64.04,20.04,0,8.87,4.77,0,196,1136,248,6987,839,140.5480042,99,693,159.6260071,80,2,310,146,308,161
Böttger_1975_Kalengo,,28.811979,-2.238127,,,,,,,,3.955,g DM m-2 y-1,Small stream in Democratic Republic of the Congo.,,,Text,1768.991573,6127.202283,0.017348064,1.075423717,81.75463104,52.40659341,52.50549451,2,,1121193900,30.51,14.32,41.48,0,11.3,1.95,0.44,176,1592,72,8588,531,160.5039978,172,1708,5.093999863,25,11,79,96,70,79
Carlisle_Clements_2003_HighZinc_Snake,4,-105.86,39.57,39,39,0,11,5,14,9,,mg DM m-2 yr-1,High zinc stream.,,,Table 2,3523.263158,749.3588995,0.020502175,1.311666965,18.5,52.37068966,52.68965517,4,,7120550370,0,28.98,9.13,0,61.88,0,0,107,654,172,4257,154,18.80599976,-9,3347,1.376999974,96,0,110,110,123,123
Carlisle_Clements_2003_IntermediateZinc_Mosquito,5,-106.07,39.27,1716,1716,1127,228,303,2,56,,mg DM m-2 yr-1,Intermediate zinc stream.,,,Table 2,3304.920109,590.1483293,0.022426726,1.311669963,18.49910709,57.87068966,58.59482759,5,1.127713247,7121081370,0,55.12,13.36,0,31.27,0.22,0.02,113,550,119,4607,83,8.593000412,-4,3282,0.660000026,68,3,36,31,51,44
Carlisle_Clements_2003_LowZinc_Buckskin,6,-106.07,39.28,2284,2284,1293,383,321,257,30,,mg DM m-2 yr-1,Low zinc stream.,,,Table 2,3332.172953,602.472983,0.022098724,1.311669963,18.49910709,58.12931034,58.81034483,5,1.123912668,7121081370,0,52.53,12.7,0,34.52,0.22,0.02,113,550,119,4607,83,8.593000412,-4,3282,0.660000026,68,3,36,31,51,44
Carlisle_Clements_2003_Reference1_EastFork,7,-106.21,39.35,4465,4465,1770,1102,973,469,151,,mg DM m-2 yr-1,Reference stream 1.,,,Table 2,3521.829203,713.5283946,0.022391717,1.311666965,18.5,55.20175439,55.62280702,6,1.263332506,7121078540,0,20.91,8.63,0,69.77,0.06,0.63,110,581,138,1551,132,0.150000006,-7,3331,0.603999972,95,1,39,39,48,48
Carlisle_Clements_2003_Reference2_FourMile,8,-106.08,39.2,5196,5196,3002,862,526,767,39,,mg DM m-2 yr-1,Reference stream 2.,,,Table 2,3315.871292,596.0973788,0.024690134,1.311763982,18.47083314,58.23275862,58.97413793,5,,7120564150,0,60.32,11.95,0,27.71,0,0.02,125,452,57,1721,67,3.382999897,6,3067,0.340000004,39,5,22,22,34,34
Chadwick_Huryn_2005_EBB_Yr1,9,-68.13,44.89,1682,1628.4,0.22,515.4,488.7,243.37,,,mg AFDM m-2 yr-1,"East Bear Brook, no N addition, first year.",,,"Results paragraph, first sentence, as well as Table 1.",147.4980469,1745.175206,0.021654334,1.330000043,16,47.325,49.375,9,,7121018530,0.22,88.42,5.59,0,0.2,0,5.57,189,1179,27,185,819,0.145999998,56,148,4.638999939,97,2,10,10,10,10
Chadwick_Huryn_2005_EBB_Yr2,10,-68.13,44.89,2271,2156.4,1.42,672.6,624.4,236.53,,,mg AFDM m-2 yr-1,"East Bear Brook, no N addition, second year.",,,"Results paragraph, first sentence, as well as Table 1.",147.4980469,1745.175206,0.021654334,1.330000043,16,47.325,49.375,9,,7121018530,0.22,88.42,5.59,0,0.2,0,5.57,189,1179,27,185,819,0.145999998,56,148,4.638999939,97,2,10,10,10,10
Chadwick_Huryn_2005_WBB_N_Yr1,11,-68.14,44.88,1654,1573.9,0,564.3,766.2,241.37,,,mg AFDM m-2 yr-1,"West Bear Brook, with N addition, first year.",,,"Results paragraph, first sentence, as well as Table 1.",148.4242126,1749.026885,0.021695108,1.330000043,16,47.33057851,49.4214876,3,,7121018530,0.2,87.09,5.91,0,0.1,0,6.69,189,1179,27,185,819,0.145999998,56,148,4.638999939,97,2,10,10,10,10
Chadwick_Huryn_2005_WBB_N_Yr2,12,-68.14,44.88,2283,2120.7,0.11,705,604.4,222.16,,,mg AFDM m-2 yr-1,"West Bear Brook, with N addition, second year.",,,"Results paragraph, first sentence, as well as Table 1.",148.4242126,1749.026885,0.021695108,1.330000043,16,47.33057851,49.4214876,3,,7121018530,0.2,87.09,5.91,0,0.1,0,6.69,189,1179,27,185,819,0.145999998,56,148,4.638999939,97,2,10,10,10,10
Chadwick_Huryn_2007_BB,13,-68.12,44.88,2000,,,,,,,,mg AFDM m-2 yr-1,"Taxa-specific results are given in appendix. But it is not clear if the values are habitat-weighted. Hence, they were not entered here.",,,"pg244, 3rd paragraph",139.390873,1751.813745,0.021279734,1.330000043,16,47.28099174,49.33884298,9,,7121018530,0.22,88.51,5.49,0,0.2,0,5.58,189,1179,27,185,819,0.145999998,56,148,4.638999939,97,2,10,10,10,10
Chadwick_Huryn_2007_ED,14,-68.12,44.88,2190,,,,,,,,mg AFDM m-2 yr-1,"Taxa-specific results are given in appendix. But it is not clear if the values are habitat-weighted. Hence, they were not entered here.",,,"pg244, 3rd paragraph",139.390873,1751.813745,0.021279734,1.330000043,16,47.28099174,49.33884298,9,,7121018530,0.22,88.51,5.49,0,0.2,0,5.58,189,1179,27,185,819,0.145999998,56,148,4.638999939,97,2,10,10,10,10
Chadwick_Huryn_2007_EU,131,-68.12,44.88,1680,,,,,,,,mg AFDM m-2 yr-1,"Taxa-specific results are given in appendix. But it is not clear if the values are habitat-weighted. Hence, they were not entered here.",,,"pg244, 3rd paragraph",139.390873,1751.813745,0.021279734,1.330000043,16,47.28099174,49.33884298,9,,7121018530,0.22,88.51,5.49,0,0.2,0,5.58,189,1179,27,185,819,0.145999998,56,148,4.638999939,97,2,10,10,10,10
Chadwick_Huryn_2007_SWP,15,-68.1,44.88,2890,,,,,,,,mg AFDM m-2 yr-1,"Taxa-specific results are given in appendix. But it is not clear if the values are habitat-weighted. Hence, they were not entered here.",,,"pg244, 3rd paragraph",138.5649414,1755.643815,0.02142914,1.330000043,16,47.30578512,49.32231405,6,,7120423920,0.19,90.27,6.18,0,0.28,0,3.08,190,1210,23,229,857,0.855000019,61,75,9.369999886,96,8,43,26,43,26
Chadwick_Huryn_2007_WD,16,-68.12,44.88,2090,,,,,,,,mg AFDM m-2 yr-1,"Taxa-specific results are given in appendix. But it is not clear if the values are habitat-weighted. Hence, they were not entered here.",,,"pg244, 3rd paragraph",139.390873,1751.813745,0.021279734,1.330000043,16,47.28099174,49.33884298,9,,7121018530,0.22,88.51,5.49,0,0.2,0,5.58,189,1179,27,185,819,0.145999998,56,148,4.638999939,97,2,10,10,10,10
Chadwick_Huryn_2007_WU,17,-68.14,44.88,1650,,,,,,,,mg AFDM m-2 yr-1,"Taxa-specific results are given in appendix. But it is not clear if the values are habitat-weighted. Hence, they were not entered here.",,,"pg244, 3rd paragraph",148.4242126,1749.026885,0.021695108,1.330000043,16,47.33057851,49.4214876,3,,7121018530,0.2,87.09,5.91,0,0.1,0,6.69,189,1179,27,185,819,0.145999998,56,148,4.638999939,97,2,10,10,10,10
Colon-Gaud_EtAl_2009_ElCope_Site1,167,-80.583,8.667,3096.5,2897.9,285.1,21.8,614.6,,,,mg AFDM m-2 yr-1,habitat weighted production (?),3.28,,Web Appendix 1.,645.6630435,13465.72473,0.016237592,1.299999952,24,53.76666667,54.01111111,13,,7120885510,0.47,85.37,12.93,0,1.23,0,0,260,2765,147,25455,843,27.45000076,246,498,2.829999924,19,21,93,93,86,86
Colon-Gaud_EtAl_2009_ElCope_Site2,168,-80.583,8.667,4369.4,4091.4,287.2,4.2,542.2,,,,mg AFDM m-2 yr-1,,3.55,,Web Appendix 1.,645.6630435,13465.72473,0.016237592,1.299999952,24,53.76666667,54.01111111,13,,7120885510,0.47,85.37,12.93,0,1.23,0,0,260,2765,147,25455,843,27.45000076,246,498,2.829999924,19,21,93,93,86,86
Colon-Gaud_EtAl_2009_Fortuna_Site1,169,-80.233,8.7,3643.8,3505.6,574.1,165.8,306.1,,,,mg AFDM m-2 yr-1,,3.37,,Web Appendix 1.,255.140625,8967.005914,0.01888961,1.179999948,49,52.68888889,52.87777778,13,,7120885300,5.45,62.67,31.66,0,0.22,0,0,272,3038,84,6990,866,37.85900116,258,304,4.199999809,96,4,77,77,81,81
Colon-Gaud_EtAl_2009_Fortuna_Site2,170,-80.233,8.7,3858.4,3441.2,403.3,2.5,1150.7,,,,mg AFDM m-2 yr-1,,2.01,,Web Appendix 1.,255.140625,8967.005914,0.01888961,1.179999948,49,52.68888889,52.87777778,13,,7120885300,5.45,62.67,31.66,0,0.22,0,0,272,3038,84,6990,866,37.85900116,258,304,4.199999809,96,4,77,77,81,81
Consoli_2023,,10.183333,46.633333,7770.700084,4538.850042,1307,897,347,1845.850042,142,,mg DM m-2 y-1,"Coordinates of the dam. 5th order river-  Data on pre, -during and after food (Spoel River)- Values are average of after-flood (since 2000)",10--18,,,2189.647978,747.4627727,0.029103352,1.358838499,13.00390637,60.28225806,60.67741935,12,,2120515090,0,26.64,10.95,0,59.3,0,3.11,80,1187,249,12041,928,16.78499985,2,2259,12.77700043,60,0,70,87,102,121
Cross_EtAl_2006_C53_Reference,18,-83.45,35.06,11872.19171,,,,,,,,mg AFDM m-2 yr-1,Just reference sites,,,,1013.703704,4951.958026,0.01977859,1.399999976,24,49.18348624,49.8440367,4,,7121121760,0.09,98.61,1.15,0,0.05,0.1,0,196,1912,145,820,952,3.895999908,102,1192,4.573999882,100,1,51,51,53,53
Cross_EtAl_2011_Site1_GlenCanyon_Yr1,20,-111.48,36.93,23700,1243,,,,718,,,mg AFDM m-2 yr-1,"Average of three sampled years. Assumed taxa listed in the table are all, or essentially all, taxa present in samples. Width is a riverwide average.",7,,Table 1,1213.998874,117.7264251,0.022864868,1.450000048,21.5,83.48453608,83.77319588,6,,7121103910,0.4,0,0.11,0,87.05,5.91,6.52,275,108,78,1739,29,3.34800005,141,1322,558.8579712,0,0,88,37,90,40
Cross_EtAl_2013_ColoradoRiver_Site2,21,-111.85,36.5,7.9672,7.3317,0,0,0.4504,1.1032,5.7781,,g AFDM m-2 yr-1,Average of three sampled years,,,,1458.188578,263.1826261,0.025442641,1.450000048,21.5,80.9266055,81.44954128,12,,7121108970,0,0,0,0,99.65,0,0.35,230,257,78,1731,48,3.278000116,109,1682,517.1309814,18,1,39,37,42,40
Cross_EtAl_2013_ColoradoRiver_Site3,22,-111.81,36.17,1.312966667,1.005466667,0,0,0.174433333,0.548966667,0.282066667,,g AFDM m-2 yr-1,Average of three sampled years,,,,1336.640909,394.7580755,0.025255971,1.450000048,21.5,80.69026549,81.00884956,6,,7121111670,0,0,0.24,0,98.64,0,1.12,247,244,68,1524,51,3.453000069,125,1518,533.9650269,33,1,40,38,43,41
Cross_EtAl_2013_ColoradoRiver_Site4,23,-112.49,36.28,1.011233333,0.979366667,0,0,0.017866667,0.4378,0.5237,,g AFDM m-2 yr-1,Average of three sampled years,,,,1216.751136,571.2634541,0.026170004,1.450000048,21.5,78.71428571,79.46428571,6,,7120628220,0,0,2.49,0,97.05,0,0.46,241,299,69,1556,32,3.440000057,122,1430,528.1350098,19,0,33,37,33,41
Cross_EtAl_2013_ColoradoRiver_Site5,24,-112.85,36.72,1.520533333,1.267566667,7e-04,0,0.057233333,0.634566667,0.575066667,,g AFDM m-2 yr-1,Average of three sampled years,,,,1503.225,525.5052671,0.02224691,1.354575821,28.28571429,78.62608696,79.76521739,6,,7120617880,0,0,0.01,0,99.99,0,0,252,296,14,649,28,0.001,131,1473,0.252999991,0,2,32,31,32,31
Cross_EtAl_2013_ColoradoRiver_Site6,25,-113.36,35.77,1.407,1.170633333,0,0,0.059333333,0.575666667,0.535633333,,g AFDM m-2 yr-1,Average of three sampled years,,,,879.8863636,655.878605,0.024641762,1.450000048,21.5,79.78761062,80.22123894,6,,7120641220,0,0,0.13,0,99.45,0,0.42,270,243,69,1611,15,3.301000118,152,1090,551.0029907,2,1,40,37,33,40
Crowther_1981_FortMckay,,-111.330954,57.364,,174.3333333,,,,,,,g wet mass m-2 yr-1,Average of 3 sites.,,,,302.6605539,297.0435127,0.024839491,0.817510396,21.703125,65.20238095,64.60119048,9,1.027776778,8120460080,0,65.17,28.32,0,6.32,0,0.2,165,420,8,22,21,0,-7,311,0.122000001,73,0,0,0,1,1
Demi_2018,,-83.75,35.0333333,4505.11418,,,,,,,,mg AFDM m-2 y-1,Mean across streams from pre-treatment date,,,,654.5362723,5054.272862,0.023542505,1.399999976,24,52.76470588,52.94117647,4,,7120658350,4.54,64.47,17.62,0,1.92,1.1,10.35,209,1742,145,1050,958,7.322999954,114,892,3.507999897,100,3,34,34,35,35
Dolph_EtAl_2015_Buffalo Creek_restored,,-93.9990782,44.8540094,10286.53632,10286.53632,1084.155548,123.654914,4917.19864,,,,mg DM m-2 y-1,,,,,294.5043945,1538.766097,0.028118892,1.351312369,22.58125019,66.30645161,66.41935484,12,,7121017610,63.19,9.05,14.69,0,10.64,1.84,0.59,222,735,4,3878,201,19.24500084,65,296,21.09399986,8,72,181,154,159,99
Dolph_EtAl_2015_Buffalo Creek_up,,-93.9990782,44.8540094,4344.508552,4344.507546,864.8065246,51.98874049,2546.392345,,,,mg DM m-2 y-1,"Only non insect was amphipods w low production-Dipetara reported, but not known if Chironomids",,,,294.5043945,1538.766097,0.028118892,1.351312369,22.58125019,66.30645161,66.41935484,12,,7121017610,63.19,9.05,14.69,0,10.64,1.84,0.59,222,735,4,3878,201,19.24500084,65,296,21.09399986,8,72,181,154,159,99
Dolph_EtAl_2015_Elm Creek_restored,,-94.2669195,43.7546623,6306.868263,6306.867085,686.9651606,151.8338214,2967.93997,,,,mg DM m-2 y-1,,,,,333.952621,1701.369877,0.026645373,1.304999948,22.5,68.89344262,69.31967213,12,,7120441960,96.3,1.3,1.16,0,0.82,0.42,0,224,752,3,4539,191,2.302000046,72,323,1.286000013,1,87,107,107,39,39
Dolph_EtAl_2015_Elm Creek_up,,-94.2669195,43.7546623,2304.213274,2304.212771,634.4004084,216.0588571,661.790159,,,,mg DM m-2 y-1,,,,,333.952621,1701.369877,0.026645373,1.304999948,22.5,68.89344262,69.31967213,12,,7120441960,96.3,1.3,1.16,0,0.82,0.42,0,224,752,3,4539,191,2.302000046,72,323,1.286000013,1,87,107,107,39,39
Dolph_EtAl_2015_Rush River_restored,,-93.9337169,44.5015449,1590.588479,1590.588479,348.5622559,23.15639189,153.1475225,,,,mg DM m-2 y-1,,,,,263.6443452,1574.230515,0.029714238,1.304999948,22.5,65.66129032,65.61290323,12,,7120424790,39.86,29.91,20.42,0,5.16,3.85,0.8,221,735,6,3428,208,10.26599979,66,266,218.5859985,35,70,204,117,180,73
Dolph_EtAl_2015_Rush River_up,,-93.9337169,44.5015449,946.0237231,946.0216596,230.0139675,12.60533706,120.0379222,,,,mg DM m-2 y-1,,,,,263.6443452,1574.230515,0.029714238,1.304999948,22.5,65.66129032,65.61290323,12,,7120424790,39.86,29.91,20.42,0,5.16,3.85,0.8,221,735,6,3428,208,10.26599979,66,266,218.5859985,35,70,204,117,180,73
Dudgeon_1999,,114.179415,22.422582,,6468.1,,,,,,,mg DM m-2 y-1,Third order tropical forest stream (Tai Po Kau) - Exact coordinates not given. Mean of 2 years,Third order,,,168.9179293,15274.73455,0.021027815,1.385267837,27.25892857,52.14545455,52.34545455,6,,4120012600,0.82,56.56,5.93,0,0.17,10.9,25.62,279,2162,69,2067,1149,763.0230103,221,133,17.68600082,54,26,187,177,203,197
Dunkle_EtAl_2024_Alaska_glacierfed,,-134.794059,58.52488,,560,,,,,,,mg DM m-2 yr-1,,,,,194.9709052,1535.481751,0.025544477,0.800000012,19.33333206,50.19083969,51.33587786,9,,7120020580,0,65.28,3.72,0,6.09,0.02,24.9,130,1452,72,183,1745,90.20999908,42,189,4.824999809,65,0,138,159,128,159
Dunkle_EtAl_2024_Alaska_rainfed,,-134.769393,58.47918,,1660,,,,,,,mg DM m-2 yr-1,,,,,101.1647059,1646.679254,0.024278571,0.800000012,19.33333206,49.70247934,50.96694215,9,,7120020580,0,69.37,1.05,0,0.06,0.02,29.49,130,1452,72,183,1745,90.20999908,42,189,4.824999809,65,0,138,159,128,159
Dunkle_EtAl_2024_Alaska_snowmelt,,-134.562906,58.41676,,2900,,,,,,,mg DM m-2 yr-1,Glacier streams in Alaska,,,Figure 6B,322.243608,1747.907067,0.025477767,0.859090919,18.34848387,50.56643357,51.25874126,9,,7120020550,0,47.27,6.38,0,19.1,6.62,20.63,112,1656,148,1868,2083,68.8789978,23,549,26.12400055,6,0,85,136,70,128
Dunkle_EtAl_2024_Alaska_transition,,-134.602561,58.37503,,1220,,,,,,,mg DM m-2 yr-1,,,,,118.4230491,1870.824805,0.025994665,0.800000012,19.33333206,49.98529412,50.75,9,,7120020560,0,63.45,4.67,0,2.6,7.18,22.1,121,1668,113,745,1938,93.27100372,35,325,13.83300018,60,0,127,130,125,127
Edwards_EtAl_1989_Detroit_MainChannel,134,-83.084,42.307,5.4,,,,,,,,g AFDM m-2 yr-1,"Width is probably an upper bound. Text states """"The width of the SCDRS ranges from 250 m in the Upper St. Clair River to 3 000 m in the lower Detroit River.""""",3000,598000,Table 3,182.3098958,1637.528736,0.027527667,1.343179549,30.88191441,66.4,66.55,12,,7120486770,0.65,4.63,7.41,0,15.95,62.3,9.06,224,840,1,1897,184,314.0069885,95,182,1.534999967,16,21,373,326,376,326
Edwards_EtAl_1989_StClaire_MainChannel,133,-82.508,42.674,7.4,,,,,,,,g AFDM m-2 yr-1,"Width is probably a lower bound. Text states """"The width of the SCDRS ranges from 250 m in the Upper St. Clair River to 3 000 m in the lower Detroit River.""""",250,579000,Table 3,179.2130208,1454.67359,0.022699537,1.24000001,55,64.5,64.73958333,6,,7120479090,31.07,29.44,18.68,0,2.24,7.14,11.44,224,800,3,658,158,200.7230072,92,175,2.700999975,19,20,107,179,104,189
Edwards_EtAl_1989_StLawrence_MainChannel,135,-75.889,44.366,13.4,,,,,,,,g AFDM m-2 yr-1,,,766000,Table 3,82.1620935,1391.419638,0.026149521,1.339341436,21.84000696,61.24590164,61.8852459,3,,7120428740,4.1,29.3,21.51,0,2.74,1.28,41.07,206,918,12,627,508,51.30400085,69,87,7737.151855,66,18,77,71,80,74
Ely_Wallace_2010_BigHurricaneBranch_Disturbed,26,-83.43,35.06,10111,,,,,,,,mg AFDM m-2 yr-1,Only lists total production and production by FFG. Coweeta LTER.,,59 ha,Table 2,899.972973,5093.644971,0.020613902,1.399999976,24,49.88181818,50.44545455,4,,7121121760,0.55,94.07,4.91,0,0.19,0.27,0,196,1912,145,820,952,3.895999908,102,1192,4.573999882,100,1,51,51,53,53
Ely_Wallace_2010_HughWhiteCreek_Reference,27,-83.43,35.05,9276,,,,,,,,mg AFDM m-2 yr-1,Only lists total production and production by FFG. Coweeta LTER.,,61 ha,Table 2,922.3255682,5089.150659,0.020326253,1.399999976,24,49.66363636,50.25454545,4,,7121121760,0.54,95,3.96,0,0.19,0.31,0,196,1912,145,820,952,3.895999908,102,1192,4.573999882,100,1,51,51,53,53
Entrekin_EtAl_2009_ShaneCreek_AfterWood_yr1,28,-88.9,46.47,0.9,,,,,,,,g AFDM m-2 yr-1,,2.4,,Figure 2,402.3086538,1035.995129,0.027259508,1.19997409,20.47265625,48.61068702,50.19847328,6,,7120369750,0.26,96.01,3.36,0,0.24,0.05,0.08,187,810,23,96,672,1.84800005,43,417,3.181999922,89,1,32,32,32,32
Entrekin_EtAl_2009_ShaneCreek_AfterWood_yr2,28,-88.9,46.47,1.5,,,,,,,,g AFDM m-2 yr-1,,2.5,,Figure 2,402.3086538,1035.995129,0.027259508,1.19997409,20.47265625,48.61068702,50.19847328,6,,7120369750,0.26,96.01,3.36,0,0.24,0.05,0.08,187,810,23,96,672,1.84800005,43,417,3.181999922,89,1,32,32,32,32
Entrekin_EtAl_2009_ShaneCreek_AfterWood_yr3,28,-88.9,46.47,1.1,,,,,,,,g AFDM m-2 yr-1,,2.5,,Figure 2,402.3086538,1035.995129,0.027259508,1.19997409,20.47265625,48.61068702,50.19847328,6,,7120369750,0.26,96.01,3.36,0,0.24,0.05,0.08,187,810,23,96,672,1.84800005,43,417,3.181999922,89,1,32,32,32,32
Entrekin_EtAl_2009_StateCreek_AfterWood_yr1,30,-88.9,46.42,3.1,,,,,,,,g AFDM m-2 yr-1,Entrekin et al. (2007) J.N.Am.Benthol.Soc. has similar data. Did not include those to avoid redundancy.,2.1,,Figure 2,463.5322115,1032.142197,0.029397836,1.049140602,22.09765625,47.03937008,48.7480315,6,,7120377890,0.1,96.82,2.31,0,0.05,0.01,0.71,185,816,14,27,528,0.103,41,492,3.39199996,99,0,12,12,12,12
Entrekin_EtAl_2009_StateCreek_AfterWood_yr2,30,-88.9,46.42,1.6,,,,,,,,g AFDM m-2 yr-1,,2.3,,Figure 2,463.5322115,1032.142197,0.029397836,1.049140602,22.09765625,47.03937008,48.7480315,6,,7120377890,0.1,96.82,2.31,0,0.05,0.01,0.71,185,816,14,27,528,0.103,41,492,3.39199996,99,0,12,12,12,12
Entrekin_EtAl_2009_StateCreek_AfterWood_yr3,30,-88.9,46.42,2.7,,,,,,,,g AFDM m-2 yr-1,,2.3,,Figure 2,463.5322115,1032.142197,0.029397836,1.049140602,22.09765625,47.03937008,48.7480315,6,,7120377890,0.1,96.82,2.31,0,0.05,0.01,0.71,185,816,14,27,528,0.103,41,492,3.39199996,99,0,12,12,12,12
Entrekin_EtAl_2009_WaltonCreek_AfterWood_yr1,32,-88.9,46.44,1.1,,,,,,,,g AFDM m-2 yr-1,Entrekin et al. (2007) J.N.Am.Benthol.Soc. has similar data. Did not include those to avoid redundancy.,1.8,,Figure 2,440.9306641,1033.802393,0.029154171,1.133984476,21.18359375,47.65891473,49.27906977,6,,7120369750,0.26,95.81,3.45,0,0.24,0.05,0.18,187,810,23,96,672,1.84800005,43,417,3.181999922,89,1,32,32,32,32
Entrekin_EtAl_2009_WaltonCreek_AfterWood_yr2,32,-88.9,46.44,1.3,,,,,,,,g AFDM m-2 yr-1,,2.4,,Figure 2,440.9306641,1033.802393,0.029154171,1.133984476,21.18359375,47.65891473,49.27906977,6,,7120369750,0.26,95.81,3.45,0,0.24,0.05,0.18,187,810,23,96,672,1.84800005,43,417,3.181999922,89,1,32,32,32,32
Entrekin_EtAl_2009_WaltonCreek_AfterWood_yr3,32,-88.9,46.44,0.9,,,,,,,,g AFDM m-2 yr-1,,2.4,,Figure 2,440.9306641,1033.802393,0.029154171,1.133984476,21.18359375,47.65891473,49.27906977,6,,7120369750,0.26,95.81,3.45,0,0.24,0.05,0.18,187,810,23,96,672,1.84800005,43,417,3.181999922,89,1,32,32,32,32
Fisher_1977_FortRiver,34,-72.51,42.35,3.32,,,,,,,,g DM m-2 yr-1,,14,105,Table 2,84.97616525,2392.237087,0.031083061,1.321428435,10.76190472,51.53636364,52.3,6,,7120486840,10.8,57.51,25.46,0,0.9,5.34,0,217,1119,71,296,757,32.66699982,87,96,414.9490051,68,7,319,97,334,102
Fisher_Gray_1983_SycamoreCreek,35,-111.5,33.75,135,,48.7,,,18.4,,,g DM m-2 yr-1,"Collectors only, but stated to be most of the invertebrates in the stream.",50,505,Table 1,798.146412,1147.246131,0.022353814,1.473059878,21.5695312,70.09259259,71,3,,7120689160,0,0,0.09,0,99.91,0,0,311,386,104,5675,29,0.181999996,200,633,0.492000014,18,0,42,36,52,45
Fisher_Likens_1973_Bear Brook,,-71.733,43.95,4.78,,,,,,,,mg DM m-2 yr-1,"Bear Brook, New Hampshire, USA",3.1,1.3,Table 7,528.9645833,1622.143999,0.024549343,1.330000043,16,44.79365079,46.65873016,4,,7120444090,0.01,98.19,1.42,0,0.17,0.03,0.18,185,1123,124,442,789,7.328000069,52,410,21.81900024,100,1,78,67,85,67
Fjellheim_EtAl_1993_Ekso_site2,,6.238,60.828,11946.35,15099.3,28.1,105.25,528.7,12462.5,,,mg DM m-2 y-1,"Total ACSP as mean from before (1976) and after (1984, 1988, 1989) weir construction. 1976 and 1984 data from Fjellheim A., Raddum G.G. & Schnell Ø.A. (1989) Changes in benthic animal production of a weir basin after eight years of succession. Regulated Rivers: Research & Management, 3, 183-190. Insect group-specific data only from 1993 paper. Weir site.",,,Table 1 and Fjellheim et al. 1989 Table 3,937.9518717,2079.340312,0.026994223,1.302131283,9.078125,51.89444444,52.32222222,4,,2120224160,0,0.96,2.01,0,96.76,0,0.27,97,2566,170,10269,2210,7.967000008,23,856,9.862999916,21,0,52,52,50,50
Fjellheim_EtAl_1993_Ekso_site3,,6.24,60.827,10658.9,14155.6,52.4,148,738,11858,,,mg DM m-2 y-1,"Total ACSP as mean from before (1976) and after (1984, 1988, 1989) weir construction. 1976 and 1984 data from Fjellheim A., Raddum G.G. & Schnell Ø.A. (1989) Changes in benthic animal production of a weir basin after eight years of succession. Regulated Rivers: Research & Management, 3, 183-190. Insect group-specific data only from 1993 paper. Weir site.",,,Table 1 and Fjellheim et al. 1989 Table 3,946.0998641,2077.118984,0.027018777,1.306255709,8.957386364,51.90055249,52.32596685,4,,2120224160,0,0.93,1.97,0,96.83,0,0.27,97,2566,170,10269,2210,7.967000008,23,856,9.862999916,21,0,52,52,50,50
Fjellheim_EtAl_1993_Ekso_site5_ref,,6.245,60.826,4748.675,5161.1,177.55,446.15,667.5,1275.5,,,mg DM m-2 y-1,"Total ACSP as mean from before (1976) and after (1984, 1988, 1989) weir construction. 1976 and 1984 data from Fjellheim A., Raddum G.G. & Schnell Ø.A. (1989) Changes in benthic animal production of a weir basin after eight years of succession. Regulated Rivers: Research & Management, 3, 183-190. Insect group-specific data only from 1993 paper. Reference site.",,,Table 1 and Fjellheim et al. 1989 Table 3,951.2681011,2074.082174,0.027328771,1.309692731,8.856770833,51.9010989,52.32417582,4,,2120224160,0,0.83,1.95,0,96.98,0,0.24,97,2566,170,10269,2210,7.967000008,23,856,9.862999916,21,0,52,52,50,50
Flössner_1976_Saale_Eichicht,,11.442,50.614,26,,,,0.6,3.3,,,g DM m-2 yr-1,"Saale River, Germany. Eichicht station.",,,Table 9 and text above,371.9410461,383.9375022,0.031347024,1.257481443,21.08699926,58.17424242,59.28030303,9,,2120410890,25.99,52.27,11.88,0,1.2,7.98,0.67,168,628,43,399,177,123.2959976,79,322,1.455000043,38,25,184,195,186,200
Flössner_1976_Saale_Fischersdorf,,11.404,50.616,82,,2,,6.9,6.3,,,g DM m-2 yr-1,"Saale River, Germany. Fischersdorf station.",,,Table 9 and text above,347.0366071,381.7034959,0.031683134,1.266720142,20.54702405,57.57462687,58.79850746,9,,2120410780,23.96,50.48,13.66,0,0.61,11.19,0.1,169,614,61,259,177,107.9779968,79,313,20.8390007,47,20,147,171,106,166
Flössner_1976_Saale_Großheringen,,11.67,51.104,46,,,,4.8,,,,g DM m-2 yr-1,"Saale River, Germany. Großheringen station.",,,Table 9 and text above,207.609161,375.7604391,0.031874421,1.380287492,21.62562485,66.83941606,67.05109489,12,,2120400180,73.87,9.67,10.02,0,0.74,5.7,0,175,553,34,608,125,125.4300003,85,205,36.72499847,0,58,205,189,186,180
Flössner_1976_Saale_Maua,,11.606,50.869,66,,0.5,,,1.3,,,g DM m-2 yr-1,"Saale River, Germany. Maua station.",,,Table 9 and text above,236.1402972,368.6220844,0.033186151,1.297366488,20.48718777,58.552,59.736,6,,2121124160,25.81,38.84,16.76,0,1.11,17.45,0.04,169,611,59,295,147,129.5890045,80,288,25.59900093,12,35,260,177,250,172
Flössner_1976_Saale_Rothenstein,,11.605,50.848,71,,,,,7.5,,,g DM m-2 yr-1,"Saale River, Germany. Rothenstein station.",,,Table 9 and text above,234.7967657,366.9790731,0.033555843,1.2901307,19.33080373,58.63565891,59.80620155,6,,2121124160,30.18,36.12,15.48,0,2.13,16.09,0,169,611,59,295,147,129.5890045,80,288,25.59900093,12,35,260,177,250,172
Flössner_1976_Saale_Stöben,,11.698,51.076,26,,,,,1.5,,,g DM m-2 yr-1,"Saale River, Germany. Stöben station.",,,Table 9 and text above,207.6095951,373.0929615,0.031719374,1.380754437,20.58809498,66.57857143,66.87142857,12,,2120400180,71.96,10.96,11.11,0,0.56,5.4,0,175,553,34,608,125,125.4300003,85,205,36.72499847,0,58,205,189,186,180
Flössner_1982_Ilm_Buchfart,,11.333,50.921,67.34,,4.01,,37.73,16.16,,,g DM m-2 yr-1,"Ilm River, Germany, Buchfart station. Averaged across 1977 and 1978 data.",,,Table 5,336.7876712,421.8032932,0.0315516,1.317281261,31.24765563,60.58914729,61.06976744,12,,2121123330,39.09,40.69,7.85,0,0.7,11.65,0,173,573,45,559,146,179.776001,82,244,4.545000076,0,58,251,206,249,199
Flössner_1982_Ilm_Tannroda,,11.245,50.861,19.01,,1.15,,9.25,4.28,,,g DM m-2 yr-1,"Ilm River, Germany, Tannroda station. Averaged across 1977 and 1978 data.",,,Table 5,371.2320205,426.0312224,0.032123118,1.318731321,34.28055573,59.51094891,60.27737226,12,,2121124580,40.4,46.19,7.16,0,0.73,5.48,0.05,166,611,55,375,168,121.5139999,76,377,3.09800005,26,38,213,176,188,167
Gaines_EtAl_1992_DouglasCreek,38,-120,47.61,,23219,884,183,2550,4920,4482,,mg DM m-2 yr-1,Values as dry mass (not ash free). Chironomus (not Chironomidae),,530,,747.7447115,206.5705376,0.039198181,1.233332992,21,66.13076923,68.19230769,5,,7120346110,40.92,0,0.01,0,58.94,0.13,0,208,247,37,416,136,2.638999939,82,663,2.895999908,10,67,22,28,32,42
Gaines_EtAl_1992_RattlesnakeSprings,39,-119.72,46.46,,16356,2554,,735,489,12570,,mg DM m-2 yr-1,,,350,,489.249053,228.7382495,0.03351713,1.307675749,19.19140625,72.12121212,73.52272727,2,,7120370720,6.6,0,0,0,93.4,0,0,212,219,66,807,35,0.303000003,100,447,0.435000002,84,4,20,57,23,59
Gaines_EtAl_1992_SnivelySprings,40,-119.79,46.49,,14154,7077,,1300,1390,4387,,mg DM m-2 yr-1,,,40,,429.9293269,215.8075497,0.033871209,1.294433624,18.67578125,73.06976744,74.37984496,2,,7120370720,3.44,0,0,0,96.56,0,0,212,219,66,807,35,0.303000003,100,447,0.435000002,84,4,20,57,23,59
Golovatyuk_2020_site1,,46.783333,49.116667,22538,,,,,3234,2381,,mg DM m-2 y-1,Saline river- Elton lake Russia,3.5–8.0,,,-10.80928309,161.7336162,0.032575824,1.312645555,22.55326758,75.59090909,76.375,9,,2120451170,0,0,0,0,93.53,0.01,6.46,243,298,1,42,3,2.786999941,79,0,0,0,2,76,72,73,74
Golovatyuk_2020_site2,,47.783333,50.116667,116665,,,,,108154,8505,,mg DM m-2 y-1,Saline river- Elton lake Russia,5.0–35.0,,,32.15446429,125.3958407,0.033798245,1.283332944,27.33333206,74.54609929,74.91489362,9,,2121132890,0.04,0,0,0,99.96,0,0,235,297,1,39,40,1.751000047,68,32,0.210999995,0,5,66,66,69,69
Griffith_EtAl_1994_FernowExperimentalForest_WS3,42,-79.68,39.05,2061,1666.2,38.4,440.3,470.8,,716.7,,mg DM m-2 yr-1,No chironomids; mostly shredders,2,,,752.0815678,2706.76175,0.029525843,1.333333015,22.33333206,44.59649123,45.3245614,6,,7120561640,1.02,93.93,3.84,0,0.06,1.15,0,209,1239,105,1207,677,4.40899992,98,569,38.0340004,100,8,115,60,108,57
Griffith_EtAl_1994_FernowExperimentalForest_WS4,43,-79.68,39.05,1557,1243.3,73.2,645.8,247.7,,276.6,,mg DM m-2 yr-1,,2,,,752.0815678,2706.76175,0.029525843,1.333333015,22.33333206,44.59649123,45.3245614,6,,7120561640,1.02,93.93,3.84,0,0.06,1.15,0,209,1239,105,1207,677,4.40899992,98,569,38.0340004,100,8,115,60,108,57
Griffith_EtAl_1994_NorthForkHickmanSlideRun,44,-79.66,39.32,3772,888,79.2,260.1,83.5,,465.2,,mg DM m-2 yr-1,,2,,,595.5285088,2868.556762,0.030532482,1.353303432,22.15178517,48.09482759,48.3362069,6,1.250933278,7121078250,1.02,90.64,7.59,0,0.43,0.32,0,206,1261,108,1227,661,6.760000229,93,592,56.20500183,100,9,146,65,158,63
Griffith_EtAl_1994_SouthForkRedRun,45,-79.513,39.053,1189,1060.6,60.7,906.8,90.7,,2.4,,mg DM m-2 yr-1,,2.7,,,998.8459052,2398.642848,0.026732497,1.333333015,22.33333206,40.97413793,42.00862069,6,,7120563080,1.59,94.61,3.25,0,0.51,0.04,0,189,1313,115,1560,634,2.164000034,82,926,17.70700073,100,5,48,40,48,38
Grubaugh_EtAl_1997_BallCreek1_M1,46,-83.4,35.06,6,,,,,,,,g AFDM m-2 yr-1,"table 7 has some taxonomic info in terms of relative contribution to production. But it only has the top 3 taxa. Columns only sum to ~85-95%. Hence, I did not try to estimate insect only production. Probably same site as used earlier in Huryn and Wallace (1987).",,,table 8,760.1498843,5257.492884,0.022305619,1.399999976,24,50.95412844,51.44954128,4,,7120656310,2,87.59,9.13,0,0.61,0.67,0,213,1763,124,1945,939,32.67399979,120,838,10.92099953,100,4,73,87,78,82
Grubaugh_EtAl_1997_BallCreek1_S1,47,-83.46,35.04,6,,,,,,,,g AFDM m-2 yr-1,"table 7 has some taxonomic info in terms of relative contribution to production. But it only has the top 3 taxa. Columns only sum to ~85-95%. Hence, I did not try to estimate insect only production.",,,,1100.644676,4894.024365,0.019583299,1.399999976,24,48.61111111,49.28703704,4,,7121124440,0,99.64,0.27,0,0.03,0.06,0,210,1836,137,767,909,3.417000055,117,893,5.153999805,100,1,38,38,48,48
Grubaugh_EtAl_1997_BallCreek2_M2,48,-83.4,35.05,5,,,,,,,,g AFDM m-2 yr-1,"table 7 has some taxonomic info in terms of relative contribution to production. But it only has the top 3 taxa. Columns only sum to ~85-95%. Hence, I did not try to estimate insect only production.",,,,778.6417411,5266.861498,0.021981305,1.399999976,24,50.75675676,51.26126126,4,,7120656310,1.23,89.87,8.05,0,0.31,0.54,0,213,1763,124,1945,939,32.67399979,120,838,10.92099953,100,4,73,87,78,82
Grubaugh_EtAl_1997_BallCreek2_S2,49,-83.45,35.04,8,,,,,,,,g AFDM m-2 yr-1,"table 7 has some taxonomic info in terms of relative contribution to production. But it only has the top 3 taxa. Columns only sum to ~85-95%. Hence, I did not try to estimate insect only production.",,,,1045.471644,4961.599527,0.019511943,1.399999976,24,48.83333333,49.5,4,,7121121760,0.08,98.93,0.77,0,0.09,0.13,0,196,1912,145,820,952,3.895999908,102,1192,4.573999882,100,1,51,51,53,53
Grubaugh_EtAl_1997_BallCreek3_M3,50,-83.4,35.06,13,,,,,,,,g AFDM m-2 yr-1,"table 7 has some taxonomic info in terms of relative contribution to production. But it only has the top 3 taxa. Columns only sum to ~85-95%. Hence, I did not try to estimate insect only production.",,,,760.1498843,5257.492884,0.022305619,1.399999976,24,50.95412844,51.44954128,4,,7120656310,2,87.59,9.13,0,0.61,0.67,0,213,1763,124,1945,939,32.67399979,120,838,10.92099953,100,4,73,87,78,82
Grubaugh_EtAl_1997_BallCreek3_S3,51,-83.42,35.06,5,,,,,,,,g AFDM m-2 yr-1,"table 7 has some taxonomic info in terms of relative contribution to production. But it only has the top 3 taxa. Columns only sum to ~85-95%. Hence, I did not try to estimate insect only production.",,,,833.7522523,5178.017371,0.02109463,1.399999976,24,50.37037037,50.90740741,4,,7120656310,0.83,91.63,6.72,0,0.37,0.45,0,213,1763,124,1945,939,32.67399979,120,838,10.92099953,100,4,73,87,78,82
Grubaugh_EtAl_1997_CoweetaCreek_M4,52,-83.39,35.07,21,,,,,,,,g AFDM m-2 yr-1,"table 7 has some taxonomic info in terms of relative contribution to production. But it only has the top 3 taxa. Columns only sum to ~85-95%. Hence, I did not try to estimate insect only production.",,,,734.4230324,5262.967281,0.022890769,1.399999976,24,51.55855856,51.92792793,4,,7120656310,2.8,83.61,11.75,0,0.94,0.9,0,213,1763,124,1945,939,32.67399979,120,838,10.92099953,100,4,73,87,78,82
Grubaugh_EtAl_1997_CoweetaCreek_M5,53,-83.38,35.08,7,,,,,,,,g AFDM m-2 yr-1,"table 7 has some taxonomic info in terms of relative contribution to production. But it only has the top 3 taxa. Columns only sum to ~85-95%. Hence, I did not try to estimate insect only production.",,,,732.5301136,5248.861258,0.023319649,1.399999976,24,51.90909091,52.26363636,4,,7120656310,3.33,79.8,14.39,0,1.53,0.95,0,213,1763,124,1945,939,32.67399979,120,838,10.92099953,100,4,73,87,78,82
Grubaugh_EtAl_1997_LittleTennesseeRiver_R1,54,-83.38,35.09,22,,,,,,,,g AFDM m-2 yr-1,"table 7 has some taxonomic info in terms of relative contribution to production. But it only has the top 3 taxa. Columns only sum to ~85-95%. Hence, I did not try to estimate insect only production.",,,,727.9904279,5222.208681,0.023567282,1.399999976,24,52.1875,52.5,4,,7120656310,4.13,76.74,16.1,0,1.99,1.04,0,213,1763,124,1945,939,32.67399979,120,838,10.92099953,100,4,73,87,78,82
Grubaugh_EtAl_1997_LittleTennesseeRiver_R2,55,-83.39,35.23,154,,,,,,,,g AFDM m-2 yr-1,"table 7 has some taxonomic info in terms of relative contribution to production. But it only has the top 3 taxa. Columns only sum to ~85-95%. Hence, I did not try to estimate insect only production.",,,,677.6863426,4786.526322,0.024707378,1.399999976,24,52.25,52.52678571,4,,7121120340,4.34,65.7,23.29,0,4.13,2.37,0.18,212,1647,127,1842,967,34.06200027,117,841,33.69599915,100,4,45,86,52,86
Grubaugh_EtAl_1997_LittleTennesseeRiver_R3,56,-83.52,35.33,121,,,,,,,,g AFDM m-2 yr-1,"table 7 has some taxonomic info in terms of relative contribution to production. But it only has the top 3 taxa. Columns only sum to ~85-95%. Hence, I did not try to estimate insect only production.",,,,706.1136364,4563.577646,0.026035947,1.333333015,22.33333206,49.68181818,49.94545455,4,,7120651090,0.15,96.43,3.11,0,0.03,0.15,0.13,213,1599,129,1740,959,31.53000069,118,793,37.59700012,100,1,51,83,59,83
Grubaugh_Wallace_1995_MiddleOconeeRiver,57,-83.406099,33.927,181.9,,,,,3,,,g AFDM m-2 yr-1,"Middle Oconee River, Georgia, USA. Same site used by Nelson and Scott (1962), with somewhat different methods and decades later.",60,1030,Table 6,212.6244213,4953.042137,0.028378115,1.377589004,22.68749891,53.74193548,53.72043011,4,,7120684080,0.94,43.73,22.34,0,3.91,29.02,0.07,262,1248,23,1217,420,184.1289978,163,216,18.97100067,78,20,306,227,318,268
Gücker_EtAl_2024_Calcada_dos_Escravos,,-44.16702,-21.0745,1511.333333,1511.333333,98.24534777,0,74.45709712,508.2219693,830.4089191,,mg DM m-2 y-1,Average of three natural (not urban or agricultural) stream reaches.,103.3333333,,Production from Table S2; widths from Table 2; Lat/Long from Figure S1.,1018.763963,6759.16417,0.017243734,1.373332977,38.66666794,52.01098901,52.02197802,4,,6120726520,6.44,20.69,29.09,0,41.08,2.7,0,223,1483,59,10854,496,55.32099915,197,1007,9.291999817,1,8,144,121,139,123
Gücker_EtAl_2024_Carandai,,-43.93121,-20.98854,353.3333333,29.33901319,0,0,0,29.33901319,0,,mg DM m-2 y-1,Average of three agricultural stream reaches.,165,,Production from Table S2; widths from Table 2; Lat/Long from Figure S1.,1075.180263,6581.352056,0.017017217,1.37048618,26.13888868,52.35416667,52.22916667,4,,6121254760,24.25,12.86,23.87,0,39,0,0.01,218,1478,58,11668,479,60.79199982,192,1068,5.622000217,10,9,108,123,76,125
Gücker_EtAl_2024_Oficina,,-44.13262,-21.09599,206.6666667,200.5940971,0,0,68.66821532,26.64547877,105.280403,,mg DM m-2 y-1,Average of three agricultural stream reaches.,69,,Production from Table S2; widths from Table 2; Lat/Long from Figure S1.,1005.544271,6768.744347,0.017588039,1.373332977,38.66666794,52.11340206,52.13402062,4,,6120726520,0.75,30.88,32.3,0,33.4,2.67,0,223,1483,59,10854,496,55.32099915,197,1007,9.291999817,1,8,144,121,139,123
Gücker_EtAl_2024_Prados,,-44.07694,-21.05731,31557,19403.62133,0,0,0,19403.62133,0,,mg DM m-2 y-1,Average of three urban stream reaches.,242.6666667,,Production from Table S2; widths from Table 2; Lat/Long from Figure S1.,1046.033203,6697.690369,0.017282865,1.373332977,38.66666794,52.5,52.39130435,4,,6120726520,1.44,17.97,30.48,0,48.13,1.97,0,223,1483,59,10854,496,55.32099915,197,1007,9.291999817,1,8,144,121,139,123
Gücker_EtAl_2024_Ritapolis,,-44.33454,-21.02722,134165.6667,131411.4964,0,0,0,131411.4964,0,,mg DM m-2 y-1,Average of three urban stream reaches.,95,,Production from Table S2; widths from Table 2; Lat/Long from Figure S1.,993.6295103,6734.436849,0.016327137,1.373332977,38.66666794,51.65656566,51.65656566,3,,6120726340,0.4,14.8,38.79,0,44.36,1.66,0,221,1602,67,6676,533,16.96100044,196,981,7.981999874,1,8,48,52,74,82
Gücker_EtAl_2024_Sumidouro,,-44.15837,-21.09599,13880.33333,12405.24746,1251.372846,567.546648,8191.364926,256.1874801,2138.775563,,mg DM m-2 y-1,Average of three natural (not urban or agricultural) stream reaches.,119.6666667,,Production from Table S2; widths from Table 2; Lat/Long from Figure S1.,999.8977865,6788.776906,0.017679759,1.373332977,38.66666794,52.10416667,52.10416667,4,,6120726520,1.9,22.63,34,0,37.52,3.95,0,223,1483,59,10854,496,55.32099915,197,1007,9.291999817,1,8,144,121,139,123
Gümbel_1976_Breitenbach_StreamSpring,,7.594246839,49.5458468,,,,,,,,3.15,g DM m-2 y-1,Emergence from Table 5 in Jackson and Fisher (1986). Averaged stream and spring values. Coordinates from google maps.,,,Table 5,342.254946,254.5035373,0.033438828,1.251645833,30.89166689,62.91791045,62.92537313,4,,2120438400,38.98,32.21,21.1,0,2.5,5.21,0,168,689,63,290,256,184.2839966,84,316,6.511000156,13,40,203,241,165,206
Gümbel_1976_Kalkbach_StreamSpring,,13.0040012,50.92914797,,,,,,,,2.32,g DM m-2 y-1,Emergence from Table 5 in Jackson and Fisher (1986). Averaged stream and spring values. Coordinates from google maps.,,,Table 5,300.7512931,432.5844367,0.03500527,1.333383393,18.99489632,59.05932203,60.24576271,4,0.098851937,2120401640,56.24,15.52,10.43,0,2.81,14.98,0.02,173,609,51,378,223,158.7299957,81,271,16.85400009,4,64,224,204,222,190
Hall_EtAl_2001_BearBrook,58,-71.72,43.94,4170,4018.91,847.7,1218.5,831.8,491.9,629.01,,mg AFDM m-2 yr-1,,,,Appendix 1,456.3010913,1630.482699,0.024886757,1.330000043,16,46.34126984,48.03174603,4,,7120444090,0.4,92.94,5.49,0,0.85,0.09,0.24,185,1123,124,442,789,7.328000069,52,410,21.81900024,100,1,78,67,85,67
Hall_EtAl_2001_HubbardBrook,59,-71.69,43.93,2997,2868.7,893.4,416.6,514.5,567.5,476.7,,mg AFDM m-2 yr-1,,,,,332.1225394,1646.219733,0.024668846,1.330000043,16,48.72,50.096,4,,7120444090,0.93,88.82,8.45,0,1.5,0.11,0.19,185,1123,124,442,789,7.328000069,52,410,21.81900024,100,1,78,67,85,67
Hall_EtAl_2006_FireholeRiver_Riffle,144,-110.835,44.561,57417,11078,754,28,4014,3703,2579,,mg AFDM m-2 yr-1,,,,Figures and Appendix,2247.22687,625.380399,0.026288008,1.389999986,11.5,58.62096774,59.36290323,5,,7120423170,0,66.45,15.84,0,17.55,0,0.17,129,621,57,579,276,0.014,0,2334,2.90899992,98,1,32,25,32,25
Hall_EtAl_2006_FireholeRiver_Vegetated,145,-110.836,44.562,171346,7743,439,13,887,4632,1772,,mg AFDM m-2 yr-1,,,,,2246.99031,625.1932151,0.026300024,1.389999986,11.5,58.63414634,59.36585366,5,,7120423170,0,66.45,15.81,0,17.57,0,0.17,129,621,57,579,276,0.014,0,2334,2.90899992,98,1,32,25,32,25
Hall_EtAl_2006_GibbonRiver,147,-110.855,44.641,28748,3949,384,577,1361,861,766,,mg AFDM m-2 yr-1,,,,,2294.698327,632.2567005,0.025010015,1.389999986,11.5,57.336,57.84,13,,7120418580,0,90.28,8.8,0,0.9,0.02,0,144,627,72,1281,332,0.503000021,12,2151,6.410999775,92,3,21,18,26,20
Hall_EtAl_2006_PolecatCreek,146,-110.687,44.11,209541,7960,1509,256,1196,2373,2626,,mg AFDM m-2 yr-1,,,,,2174.327756,643.6083874,0.027437931,1.289218754,17.06054688,58.448,58.88,5,,7120439940,0.12,65.29,23.33,0,11.13,0.01,0.11,130,663,75,1250,374,0.025,0,2327,17.16200066,100,0,17,9,17,10
Hankel_2023_Choncas,,-65.338306,-26.784444,3769.3,,,,,,,,mg DM m-2 y-1,,1.4,,,898.7928922,4508.187634,0.020374758,1.186666965,20.64583424,57.24489796,57.39795918,4,,6121294030,0.39,79.87,7.33,0,2.04,10.38,0,244,952,66,1169,267,908.3129883,188,688,2.016000032,41,23,246,246,271,271
Hankel_2023_Munoz,,-65.663722,-26.987222,9034.2,,,,,,,,mg DM m-2 y-1,,3.5,,,1975.808211,2767.716607,0.021027773,1.212381295,24.73809542,63.32673267,64.33663366,4,,6120811840,0.21,69.26,14.91,0,15.59,0.03,0,225,677,158,6212,252,18.49099922,166,1394,7.760000229,39,5,80,53,111,79
Hankel_2023_Siambon,,-65.446556,-26.71775,13916.4,,,,,,,,mg DM m-2 y-1,,1.8,,,1356.881127,4137.485019,0.021084088,1.21988133,25.92559542,57.98989899,58.53535354,4,,6120808280,0,92.64,6.15,0,1.11,0.1,0,226,968,118,808,288,291.2940063,172,1148,0.978999972,82,8,91,91,122,122
Hannesdottir_EtAl_2013_HengladalsaRiverTributary_SiteIS1,183,-21.3,64.05,16908,,,,,,,,mg DM m-2 yr-1,Only lists coordinates for general study area. Data extracted from figure using WebPlot Digitizer (https://apps.automeris.io/wpd/),,,Fig 16,393.6613582,956.9401707,0.024595757,1.202447926,15.22743066,62.42583732,63.10047847,2,,2121034430,0,0,0,0,100,0,0,95,1059,62,2408,1623,109.3679962,32,299,10.44499969,0,0,98,98,77,77
Hannesdottir_EtAl_2013_HengladalsaRiverTributary_SiteIS11,179,-21.3,64.05,2472,,,,,,,,mg DM m-2 yr-1,Only lists coordinates for general study area. Data extracted from figure using WebPlot Digitizer (https://apps.automeris.io/wpd/).,,,Fig 16,393.6613582,956.9401707,0.024595757,1.202447926,15.22743066,62.42583732,63.10047847,2,,2121034430,0,0,0,0,100,0,0,95,1059,62,2408,1623,109.3679962,32,299,10.44499969,0,0,98,98,77,77
Hannesdottir_EtAl_2013_HengladalsaRiverTributary_SiteIS5,184,-21.3,64.05,29526,,,,,,,,mg DM m-2 yr-1,Only lists coordinates for general study area. Data extracted from figure using WebPlot Digitizer (https://apps.automeris.io/wpd/),,,Fig 16,393.6613582,956.9401707,0.024595757,1.202447926,15.22743066,62.42583732,63.10047847,2,,2121034430,0,0,0,0,100,0,0,95,1059,62,2408,1623,109.3679962,32,299,10.44499969,0,0,98,98,77,77
Hannesdottir_EtAl_2013_HengladalsaRiverTributary_SiteIS6,182,-21.3,64.05,13817,,,,,,,,mg DM m-2 yr-1,Only lists coordinates for general study area. Data extracted from figure using WebPlot Digitizer (https://apps.automeris.io/wpd/),,,Fig 16,393.6613582,956.9401707,0.024595757,1.202447926,15.22743066,62.42583732,63.10047847,2,,2121034430,0,0,0,0,100,0,0,95,1059,62,2408,1623,109.3679962,32,299,10.44499969,0,0,98,98,77,77
Hannesdottir_EtAl_2013_HengladalsaRiverTributary_SiteIS7,180,-21.3,64.05,4680,,,,,,,,mg DM m-2 yr-1,Only lists coordinates for general study area. Data extracted from figure using WebPlot Digitizer (https://apps.automeris.io/wpd/),,,Fig 16,393.6613582,956.9401707,0.024595757,1.202447926,15.22743066,62.42583732,63.10047847,2,,2121034430,0,0,0,0,100,0,0,95,1059,62,2408,1623,109.3679962,32,299,10.44499969,0,0,98,98,77,77
Hannesdottir_EtAl_2013_HengladalsaRiverTributary_SiteIS9,181,-21.3,64.05,2280,,,,,,,,mg DM m-2 yr-1,Only lists coordinates for general study area. Data extracted from figure using WebPlot Digitizer (https://apps.automeris.io/wpd/),,,Fig 16,393.6613582,956.9401707,0.024595757,1.202447926,15.22743066,62.42583732,63.10047847,2,,2121034430,0,0,0,0,100,0,0,95,1059,62,2408,1623,109.3679962,32,299,10.44499969,0,0,98,98,77,77
Harper_1978_l'Achigan River,,-73.67136376,45.85460583,,,,,,,,6.185,g DM m-2 y-1,Average emergence production records from Fisher and Jackson 1986. Coordinates extracted from Google maps,,,,55.43082061,1276.481246,0.027769113,1.355714304,6.142857143,60.4765625,60.6875,12,,7120393710,82.6,4.45,6.12,0,4.13,2.7,0,205,973,6,655,587,328.8089905,58,33,7.132999897,36,26,329,318,330,322
Harvey_EtAl_1998,,-149.165929,68.666,1500,,,,,,,,mg DM m-2 y-1,Low production tundra stream; mean unfertilized ,,,,866.7861842,,0.033970728,1.406666994,12.33333302,57.70588235,58.22268908,9,,8120366300,0,0,0,0,97.65,0,2.35,102,217,80,497,110,0.013,-114,663,0.811999977,0,0,3,8,3,8
Heinrich_EtAl_2014,,-89.01939447,37.46674025,,,,,,,,10982.67,mg DM m-2 y-1,"Sum of daily measurements multiplied by number of days in  each of 12 months, Coordinates Taken from above Post Creek Cutoff. Non-weir site.",,,Figure 2b,132.5010965,4228.375098,0.043631726,1.360000014,21.33333206,56.64545455,55.61818182,6,1,7120603510,20,43.14,29.95,0,6.61,0.27,0.02,256,1191,25,3990,449,19.7859993,135,128,5.376999855,40,39,93,89,93,85
Helan_EtAl_1973_Lusova/Brodska,,18.178,49.341,117.714,98.8422,24.875,18.9972,45.18,1.774,,,mg Wet Mass m-2 yr-1,"Two small streams, Svratka and Loucka, in the Bedsky Mountains, Czech Republic. Very detailed study on each benthic group. AISP value from Zelinka et al. (1977), included elsewhere in this spreadsheet.",2,10.775,Table 54,624.5199275,537.8031722,0.032075469,1.395711806,18.59652774,53.74814815,54.17037037,6,,2120452200,7.09,78.79,10.48,0,0.55,3.06,0.02,165,827,123,282,316,84.85099792,70,543,1.824000001,92,2,144,144,116,117
Hertel_Alaska_GWS_25Mile,,-145.309639,60.463259,,7089.7,,,,,,,mg AFDM m-2 yr-1,,,,,61.93956044,2270.063759,0.03084711,1.238295479,12.64204545,47.38311688,47.87012987,6,,8120000820,0,39.16,19.89,0,28.8,0,12.15,121,2015,15,260,2463,0,33,119,36.8769989,4,0,32,43,32,43
Hertel_Alaska_GWS_Hatch,,-145.356674,60.460497,,10103.5,,,,,,,mg AFDM m-2 yr-1,,,,,22.48722376,2313.327275,0.032132678,1.246354192,12.484375,47.82467532,48.34415584,6,,8120000820,0,34.19,20.27,0,36.34,0,9.2,121,2015,15,260,2463,0,33,119,36.8769989,4,0,32,43,32,43
Hertel_Alaska_SWS_18Mile,,-145.11804,60.44234,,2974.1,,,,,,,mg AFDM m-2 yr-1,Thesis. SWS=Surface water; GWS=groundwater,,,Tab 12,140.6127049,2071.220782,0.02695665,1.220000029,13,47.74757282,48.22330097,6,,8120000820,0,15.27,9.27,0,37.65,0,37.81,121,2015,15,260,2463,0,33,119,36.8769989,4,0,32,43,32,43
Hertel_Alaska_SWS_Blackhole,,-145.631869,60.591126,,2678.8,,,,,,,mg AFDM m-2 yr-1,,,,,250.0095628,1913.596414,0.024732553,0.800000012,19.33333206,47.33333333,47.86821705,6,,8120000860,0,47.19,11.97,0,23.2,0,17.65,119,2040,16,80,2610,0.001,31,141,7.90199995,0,0,22,37,22,37
Hopkins_1976_HinauStream_Main_OrgEnrich,191,175.483,-40.967,73.69,,,,,,,,g DM m-2 yr-1,No insect production reported.,,,,276.8260417,1282.112732,0.021214267,1.199101746,23.24609423,53.98319328,54.17647059,9,,5120617350,9.21,51.24,7.59,0,31.81,0.15,0,166,1550,192,391,985,4.900000095,118,286,8.512000084,57,1,77,53,100,67
Hopkins_1976_HinauStream_NorthBranch_Open,189,175.483,-40.967,32.53,,,,,,,,g DM m-2 yr-1,No insect production reported.,,,,276.8260417,1282.112732,0.021214267,1.199101746,23.24609423,53.98319328,54.17647059,9,,5120617350,9.21,51.24,7.59,0,31.81,0.15,0,166,1550,192,391,985,4.900000095,118,286,8.512000084,57,1,77,53,100,67
Hopkins_1976_HinauStream_SouthBranch_Closed,190,175.483,-40.967,8.4,,,,,,,,g DM m-2 yr-1,No insect production reported.,,,,276.8260417,1282.112732,0.021214267,1.199101746,23.24609423,53.98319328,54.17647059,9,,5120617350,9.21,51.24,7.59,0,31.81,0.15,0,166,1550,192,391,985,4.900000095,118,286,8.512000084,57,1,77,53,100,67
Hopkins_1976_HorokiwiStream_Bush_Shaded,187,174.9,-41.1,24.63,,,,,,,,g DM m-2 yr-1,No insect production reported.,,,,80.53177083,1028.826782,0.019278315,1.375,20.5,55.09090909,55.14772727,9,,5120085100,0.14,16.76,19.84,0,43.61,7.47,12.17,169,1229,90,188,957,687.2800293,125,147,9.458999634,31,0,253,265,241,251
Hopkins_1976_HorokiwiStream_Gyton_Open,186,174.9,-41.1,56.33,,,,,,,,g DM m-2 yr-1,No insect production reported.,,,,80.53177083,1028.826782,0.019278315,1.375,20.5,55.09090909,55.14772727,9,,5120085100,0.14,16.76,19.84,0,43.61,7.47,12.17,169,1229,90,188,957,687.2800293,125,147,9.458999634,31,0,253,265,241,251
Hopkins_1976_HorokiwiStream_Lower_Open,188,174.9,-41.1,43.55,,,,,,,,g DM m-2 yr-1,No insect production reported.,,,,80.53177083,1028.826782,0.019278315,1.375,20.5,55.09090909,55.14772727,9,,5120085100,0.14,16.76,19.84,0,43.61,7.47,12.17,169,1229,90,188,957,687.2800293,125,147,9.458999634,31,0,253,265,241,251
Huryn_1996_SuttonStream,192,170.32,-44.518,13353,,,,,,,,mg AFDM m-2 yr-1,Results in adding up the prod.values are different from those on the paper.,,,,902.8271484,608.8144488,0.018625022,1.378912118,19.50462935,60.12195122,60.43902439,9,,5120622880,0,0,1.35,0,98.65,0,0,138,751,157,15603,405,0.314999998,79,787,355.875,0,0,46,44,47,47
Huryn_Wallace_1987_UpperBallCreek,60,-83.4,35.06,7416,,,,,,,,mg AFDM m-2 yr-1,"Upper Ball Creek, Watershed 27, Coweeta, North Carolina, USA. Probably same site as used later in Grubaugh et al. (1997).",0.224,0.388,Table 2,760.1498843,5257.492884,0.022305619,1.399999976,24,50.95412844,51.44954128,4,,7120656310,2,87.59,9.13,0,0.61,0.67,0,213,1763,124,1945,939,32.67399979,120,838,10.92099953,100,4,73,87,78,82
Hynes_Coleman_Hirnant,,-3.406774,52.7961,,8.255,,,,,,,g wet mass m-2 yr-1,Mean of flood and normal years (Welsh stream),,,,347.5848818,1064.652718,0.02897903,1.212900126,17.74749966,52.64189189,52.69594595,12,,2120357170,0.29,15.22,17.17,0,67.2,0.13,0,149,988,67,736,909,16.57699966,84,186,17.61300087,0,10,192,168,154,143
Illies_1971_1975_Breitenbach,,7.594246839,49.5458468,,,,,,,,3.74,g DM m-2 y-1,Emergence from Table 5 in Fisher and Jackson 1986. Coordinates from google maps,,,,342.254946,254.5035373,0.033438828,1.251645833,30.89166689,62.91791045,62.92537313,4,,2120438400,38.98,32.21,21.1,0,2.5,5.21,0,168,689,63,290,256,184.2839966,84,316,6.511000156,13,40,203,241,165,206
Iversen_1988_RoldKilde,193,9.883,56.767,8.738,,,,,,,,g AFDM m-2 yr-1,Double check values; paper reports inconsistent values and units?,,,"Table 7, 8",64.81631098,492.6150156,0.016661097,1.215383947,10.74553561,55.33544304,55.43037975,5,,2120024800,55.24,33.02,7.01,0,0.41,3.53,0.79,164,719,11,559,507,45.49200058,74,41,3.878999949,2,72,156,156,113,112
Jackson_Fisher_1986_SycamoreCreek,148,-111.5,33.75,120900,120900,55600,,1390,5830,,23100,mg DM m-2 yr-1,,,,Table 4,798.146412,1147.246131,0.022353814,1.473059878,21.5695312,70.09259259,71,3,,7120689160,0,0,0.09,0,99.91,0,0,311,386,104,5675,29,0.181999996,200,633,0.492000014,18,0,42,36,52,45
Johnson_EtAl_2013_ChenowethRun,63,-85.56,38.2,6150,,,,,,,,mg AFDM m-2 yr-1,"Urban Kentucky stream. Backed out production from available data on 5 most dominant taxa, along with % these 5 taxa contribute to overall production. Results of this approach are robust upon verification and match Fig. 4.",3.6,4.3,Table 2,209.348136,3940.968595,0.03280896,1.414305349,23.21527863,58.48333333,57.63333333,12,,7121091390,2.1,10.6,25.52,0,3.2,58.58,0,249,1149,9,1981,394,1081.603027,131,165,1.957000017,7,5,373,373,373,373
Johnson_EtAl_2013_GooseCreek,64,-85.56,38.27,16987,,,,,,,,mg AFDM m-2 yr-1,"Suburban Kentucky stream. Backed out production from available data on 5 most dominant taxa, along with % these 5 taxa contribute to overall production. Results of this approach are robust upon verification and match Fig. 4.",5.9,3.1,Table 2,208.4728982,3896.295667,0.032681636,1.406964166,22.84821483,58.56140351,57.56140351,12,,7121091390,2.81,14.64,18.69,0,3.48,60.3,0.09,249,1149,9,1981,394,1081.603027,131,165,1.957000017,7,5,373,373,373,373
Johnson_EtAl_2013_HartsRun,66,-85.62,37.87,11555,,,,,,,,mg AFDM m-2 yr-1,"Forested Kentucky stream. Backed out production from available data on 5 most dominant taxa, along with % these 5 taxa contribute to overall production. Results of this approach are robust upon verification and match Fig. 4.",4.5,7.3,Table 2,212.522677,4291.058188,0.039119156,1.333333015,22.33333206,52.77876106,52.38938053,6,,7120591350,0.1,95.68,3.89,0,0.1,0.05,0.19,248,1200,36,7020,388,22.30200005,133,179,52.3429985,90,10,108,95,94,96
Johnson_EtAl_2013_LittleGooseCreek,69,-85.61,38.31,12406,,,,,,,,mg AFDM m-2 yr-1,"Suburban Kentucky stream. Backed out production from available data on 5 most dominant taxa, along with % these 5 taxa contribute to overall production. Results of this approach are robust upon verification and match Fig. 4.",6.3,15,Table 2,177.2823465,3855.448272,0.035514004,1.389999986,22,59.35,58.4875,12,,7121090110,4.18,26.71,21.33,0,2.52,40.66,4.59,247,1145,61,3202,394,65.3769989,129,172,3520.906006,9,7,366,142,369,141
Johnson_EtAl_2013_SinkingCreek,72,-86.29,37.81,21834,,,,,,,,mg AFDM m-2 yr-1,"Exurban Kentucky stream. Backed out production from available data on 5 most dominant taxa, along with % these 5 taxa contribute to overall production. Results of this approach are robust upon verification and match Fig. 4.",5.6,5.3,Table 2,201.3634868,4043.891539,0.037314027,1.360312492,22.84375,57.72413793,56.40517241,12,,7121094140,25.52,38.09,26.81,0,9.34,0.24,0,247,1204,33,7653,396,16.5890007,129,199,4.342999935,20,69,84,63,87,69
Johnson_EtAl_2013_WilsonCreek,74,-85.75,38.12,11524,,,,,,,,mg AFDM m-2 yr-1,"Rural Kentucky stream. Backed out production from available data on 5 most dominant taxa, along with % these 5 taxa contribute to overall production. Results of this approach are robust upon verification and match Fig. 4.",4.8,14.8,Table 2,161.6295455,3911.531013,0.036716423,1.337661783,22.30786938,58.08536585,57.37804878,5,,7120589180,3.17,33.7,25.82,0,6.11,31.16,0.04,249,1166,61,3201,385,67.58699799,131,197,3524.656982,78,13,192,142,160,141
Johnson_Fritz_Price_2013_AshRun,61,-81.1,38.29,18.6,18.6,2.2,8.7,,7.7,,,g AFDM m-2 yr-1,West Virginia forested stream. Chironomid values are actually nematoceran article; Paper derives benthic production from emergence.,,3.99,Figure 3,464.1540948,3381.235476,0.030444672,1.333333015,22.33333206,49.36283186,49.50442478,6,1.265938616,7121088790,0.16,98.5,0.98,0,0.36,0,0,224,1179,131,1266,434,7.964000225,114,392,56.22600174,100,4,71,70,73,68
Johnson_Fritz_Price_2013_Beech,136,-81.049,38.319,10.9,10.9,,1.3,,9.6,,,g AFDM m-2 yr-1,West Virginia mountaintop removal mined stream. Chironomid values are actually nematoceran article; Paper derives benthic production from emergence.,,0.57,Figure 3,481.0483696,3382.851443,0.030368918,1.333333015,22.33333206,50.34210526,50.69298246,6,1.226883927,7121088790,2.03,67.64,23.69,0,6.54,0.11,0,224,1179,131,1266,434,7.964000225,114,392,56.22600174,100,4,71,70,73,68
Johnson_Fritz_Price_2013_BucklesRun,62,-81.19,38.23,66.1,66.1,,7,,59.1,,,g AFDM m-2 yr-1,West Virginia mountaintop removal mined stream. Chironomid values are actually nematoceran article; Paper derives benthic production from emergence.,,2.61,Figure 3,397.5082965,3463.385393,0.031044001,1.333333015,22.33333206,50.4137931,50.27586207,6,1,7120584640,0.07,90.93,8.17,0,0.28,0.54,0,224,1160,92,1735,406,27.17099953,114,430,376.9249878,93,2,163,93,142,92
Johnson_Fritz_Price_2013_HardwayRun,65,-81.04,38.3,17.9,17.9,,4.1,,13.8,,,g AFDM m-2 yr-1,West Virginia mountaintop removal mined stream. Chironomid values are actually nematoceran article; Paper derives benthic production from emergence.,,1.43,Figure 3,480.4314693,3370.664389,0.030297599,1.333333015,22.33333206,50.10526316,50.35964912,6,1.19512318,7121088790,2.1,74.06,18.93,0,4.75,0.16,0,224,1179,131,1266,434,7.964000225,114,392,56.22600174,100,4,71,70,73,68
Johnson_Fritz_Price_2013_JackRun,67,-81.12,38.28,27.5,27.5,7.7,7.9,,11.9,,,g AFDM m-2 yr-1,West Virginia forested stream. Chironomid values are actually nematoceran article; Paper derives benthic production from emergence.,,0.91,Figure 3,442.5237832,3407.680289,0.030522572,1.333333015,22.33333206,49.90517241,49.81034483,6,,7120585550,0.05,98.74,1.15,0,0.04,0.02,0,224,1160,106,1165,417,11.49800014,115,407,64.26599884,100,0,98,70,100,71
Johnson_Fritz_Price_2013_LaurelRun,68,-81.11,38.3,21.5,21.5,4.3,5.5,,11.7,,,g AFDM m-2 yr-1,West Virginia forested stream. Chironomid values are actually nematoceran article; Paper derives benthic production from emergence.,,1.41,Figure 3,455.5487939,3400.468654,0.030577785,1.333333015,22.33333206,49.45945946,49.56756757,6,0.978285291,7121088790,0.15,98.26,1.16,0,0.43,0,0,224,1179,131,1266,434,7.964000225,114,392,56.22600174,100,4,71,70,73,68
Johnson_Fritz_Price_2013_Lost,137,-81.038,38.321,1.5,1.5,,0.4,,1.1,,,g AFDM m-2 yr-1,West Virginia mountaintop removal mined stream. Chironomid values are actually nematoceran article; Paper derives benthic production from emergence.,,0.79,Figure 3,486.4630435,3378.079809,0.030277517,1.333333015,22.33333206,50.45535714,50.78571429,6,1.208646658,7121088790,2.15,63.33,27.72,0,6.65,0.15,0,224,1179,131,1266,434,7.964000225,114,392,56.22600174,100,4,71,70,73,68
Johnson_Fritz_Price_2013_NeilRun,70,-81.08,38.29,20.6,20.6,4.3,3.9,,12.4,,,g AFDM m-2 yr-1,West Virginia forested stream. Chironomid values are actually nematoceran article; Paper derives benthic production from emergence.,,3.73,Figure 3,477.8001078,3354.245384,0.030412779,1.333333015,22.33333206,49.62280702,49.79824561,6,1.176005169,7121088790,0.9,92.95,4.92,0,1.22,0,0,224,1179,131,1266,434,7.964000225,114,392,56.22600174,100,4,71,70,73,68
Johnson_Fritz_Price_2013_PetersRun,71,-81.04,38.3,12.8,12.8,2.3,3.8,,6.7,,,g AFDM m-2 yr-1,West Virginia forested stream. Chironomid values are actually nematoceran article; Paper derives benthic production from emergence.,,1.62,Figure 3,480.4314693,3370.664389,0.030297599,1.333333015,22.33333206,50.10526316,50.35964912,6,1.19512318,7121088790,2.1,74.06,18.93,0,4.75,0.16,0,224,1179,131,1266,434,7.964000225,114,392,56.22600174,100,4,71,70,73,68
Johnson_Fritz_Price_2013_SugarcampRun,73,-81.03,38.31,52.7,52.7,,,,46.4,6.3,,g AFDM m-2 yr-1,West Virginia mountaintop removal mined stream. Chironomid values are actually nematoceran article; Paper derives benthic production from emergence.,,5.27,Figure 3,487.8642241,3364.741415,0.030216083,1.333333015,22.33333206,50.30357143,50.58928571,6,1.218227507,7121088790,1.95,65.17,26.61,0,6.12,0.15,0,224,1179,131,1266,434,7.964000225,114,392,56.22600174,100,4,71,70,73,68
Junker_Cross_2014_WestBlacktailDeerCreek,75,-112.25,44.76,7598,7598,2824,838,322,455,3135,,mg AFDM m-2 yr-1,"In Table 1, only insects are listed. There is an """"other"""" category that has 77 mg AFDM m2 y1. That amount is included in the total here. in other words, I assumed that all community production = all insect production. ",3.5,,Table 1,2414.285156,463.2224622,0.029472136,1.222009029,25.67857143,65.5078125,66.53125,6,,7120415810,0,16.82,17.54,0,65.64,0,0,138,425,105,1273,136,0.006,14,2314,0.72299999,41,5,31,31,14,14
Kedzierski_Smock_2001_HigginsCreek_Logged3yrsPrevious,76,-77.121369,36.876541,103,,,,,,,,g DM m-2 yr-1,"Has taxon-specific values, but only for """"most productive"""" taxa; appears to omit ~1/3 of overall production when those are added together. Lat/Long from generic point in Assakoosick Swamp system; no specific coordinates provided in paper.",1.2,4.45,"Table 1, Fig 4",29.54402174,4458.156215,0.021867443,1.409999967,23.5,50.77272727,50.67272727,5,,7120618930,10.32,77.79,9.27,0,2.52,0.1,0,253,1158,8,644,454,3.808000088,145,30,3.726999998,95,17,58,59,63,66
Kedzierski_Smock_2001_HigginsCreek_Unlogged,77,-77.121369,36.876541,41,,,,,,,,g DM m-2 yr-1,"Has taxon-specific values, but only for """"most productive"""" taxa; appears to omit ~1/3 of overall production when those are added together. Lat/Long from generic point in Assakoosick Swamp system; no specific coordinates provided in paper.",1.2,4.45,"Table 1, Fig 4",29.54402174,4458.156215,0.021867443,1.409999967,23.5,50.77272727,50.67272727,5,,7120618930,10.32,77.79,9.27,0,2.52,0.1,0,253,1158,8,644,454,3.808000088,145,30,3.726999998,95,17,58,59,63,66
Kendrick_2019_reference,,-149.4,68.46,3840,,,,,,,,mg DM m-2 y-1,"Tundra, 4th order upper Kuparuk River.",,,Text page s97,1002.541322,,0.031913118,1.406666994,12.33333302,59.01408451,59.79342723,9,,8120101650,0,0,0,0,92.63,0,7.37,100,227,58,231,130,0,-116,799,0.391000003,0,0,25,25,25,25
Krueger_Waters_1983_BlackhoofRiver,151,-92.531,43.662,7.378,,,,,,,,g DM m-2 y-1,"Caribou River, Minnesota, USA. Converted from wet mass to dry mass using 0.17 conversion from Waters (1977) described in this paper's text. ",5.5,,Table 4,412.6445313,1676.734414,0.028072647,1.353999972,23.20000076,62.38095238,61.13492063,12,,7120444960,98.31,0.17,0.3,0,1.05,0.17,0,213,824,14,4881,286,11.4630003,64,378,5.93900013,3,55,106,118,105,99
Krueger_Waters_1983_CaribouRiver,149,-91.037,47.574,5.525,,,,,,,,g DM m-2 y-1,"Blackhoof River, Minnesota, USA. Converted from wet mass to dry mass using 0.17 conversion from Waters (1977) described in this paper's text. ",4.5,,Table 3,490.7765858,808.0843004,0.028873305,1.336666942,19,50.90909091,51.43801653,2,,7120988600,0.67,83.69,12.53,0,0.22,0,2.89,185,730,13,47,610,0.603999972,41,293,2.536999941,42,1,32,32,31,31
Krueger_Waters_1983_NorthBranchCreek,150,-92.561,46.618,22.508,,,,,,,,g DM m-2 y-1,"North Branch Creek, Minnesota, USA. Converted from wet mass to dry mass using 0.17 conversion from Waters (1977) described in this paper's text. ",6,,Table 5,359.6302885,1088.196249,0.025186507,1.336666942,19,54.015625,54.6484375,6,,7120370100,9.47,63.55,19.71,0,6.96,0.15,0.16,192,756,13,504,570,12.54899979,40,344,3.319999933,99,12,83,83,90,90
Lavandier_Décamps_1984_Estaragne_Station1,,0.142,42.806,4.9,,,,,,,,g DM m-2 y-1,"Estaragne River, France, most upstream site",3,6.5,Table 9.3,2324.476118,926.5362665,0.02418383,1.291718766,22.27499986,59.45454545,59.62809917,3,,2120588610,0,3.7,4.1,0,89.86,0.06,2.29,116,1277,253,8167,505,11.08300018,36,1910,1.853999972,51,1,82,82,115,115
Lavandier_Décamps_1984_Estaragne_Station2,,0.144,42.808,6.7,,,,,,,,g DM m-2 y-1,"Estaragne River, France, middle site",3,6.5,Table 9.3,2323.15,929.5514053,0.023953228,1.291718766,22.27499986,59.47540984,59.6557377,3,,2120588610,0,3.94,4.25,0,89.46,0.06,2.29,116,1277,253,8167,505,11.08300018,36,1910,1.853999972,51,1,82,82,115,115
Lavandier_Décamps_1984_Estaragne_Station3,,0.145,42.809,6.55,,,,,,,,g DM m-2 y-1,"Estaragne River, France, middle site",3,6.5,Table 9.3,2308.866431,935.0250766,0.024061521,1.291718766,22.27499986,59.47933884,59.66115702,3,,2120588610,0,4.06,4.4,0,89.2,0.06,2.29,116,1277,253,8167,505,11.08300018,36,1910,1.853999972,51,1,82,82,115,115
Lavandier_Décamps_1984_Estaragne_Station4,,0.152,42.822,6.5,,,,,,,,g DM m-2 y-1,"Estaragne River, France, middle site",3,6.5,Table 9.3,2289.821069,949.038476,0.022871862,1.278073013,22.32135391,59.51666667,59.75833333,3,,2120588610,0,5.18,5.26,0,86.98,0.06,2.53,116,1277,253,8167,505,11.08300018,36,1910,1.853999972,51,1,82,82,115,115
Lavandier_Décamps_1984_Estaragne_Station5,,0.155,42.822,7.6,,,,,,,,g DM m-2 y-1,"Estaragne River, France, lowest site",3,6.5,Table 9.3,2255.899698,966.0140967,0.02294008,1.278073013,22.32135391,59.525,59.775,3,,2120588610,0,6.05,5.89,0,85.35,0.06,2.65,116,1277,253,8167,505,11.08300018,36,1910,1.853999972,51,1,82,82,115,115
Lavandier_Décamps_1984_Estaragne_Tributary1,,0.145,42.809,3.3,,,,,,,,g DM m-2 y-1,"Tributary of Estaragne River, France",3,6.5,Table 9.3,2308.866431,935.0250766,0.024061521,1.291718766,22.27499986,59.47933884,59.66115702,3,,2120588610,0,4.06,4.4,0,89.2,0.06,2.29,116,1277,253,8167,505,11.08300018,36,1910,1.853999972,51,1,82,82,115,115
Lavandier_Décamps_1984_Estaragne_Tributary2,,0.153,42.822,8.1,,,,,,,,g DM m-2 y-1,"Tributary of Estaragne River, France",3,6.5,Table 9.3,2280.859375,953.5427847,0.022972642,1.278073013,22.32135391,59.51260504,59.76470588,3,,2120588610,0,5.46,5.5,0,86.39,0.06,2.59,116,1277,253,8167,505,11.08300018,36,1910,1.853999972,51,1,82,82,115,115
Leland_EtAl_1986_ConvictCreek,78,-118.83,37.61,4.465,4.465,1.472,0.266,2.377,0.12,,,g DM m-2 yr-1,"Convict Creek, Calilfornia. Only """"the more abundant benthic insects"""", so a conservative tally.",3,,Table 3,2358.735453,290.2517348,0.022300429,1.261476142,23.46032333,65.53913043,66.37391304,5,0.074557968,7120598530,0,1.39,8.34,0,88.89,0.3,1.09,162,346,84,2062,249,11.0909996,61,2269,5.426000118,32,0,3,33,3,37
Linares_2018_close1,,-46.8811,-20.131982,6951.554,,,,,,,,mg DM m-2 y-1,,,,,1232.667969,6137.642085,0.018487156,1.330000043,38.33333206,52.25,52.44565217,4,,6120712210,0.1,1.52,3.93,0,94.44,0,0,216,1519,63,14078,554,0.885999978,198,979,3.657999992,19,5,42,42,52,52
Linares_2018_close2,,-46.8811,-20.131982,8250.475,,,,,,,,mg DM m-2 y-1,,,,,1232.667969,6137.642085,0.018487156,1.330000043,38.33333206,52.25,52.44565217,4,,6120712210,0.1,1.52,3.93,0,94.44,0,0,216,1519,63,14078,554,0.885999978,198,979,3.657999992,19,5,42,42,52,52
Linares_2018_close3,,-46.8811,-20.131982,8928.955,,,,,,,,mg DM m-2 y-1,,,,,1232.667969,6137.642085,0.018487156,1.330000043,38.33333206,52.25,52.44565217,4,,6120712210,0.1,1.52,3.93,0,94.44,0,0,216,1519,63,14078,554,0.885999978,198,979,3.657999992,19,5,42,42,52,52
Linares_2018_close4,,-46.8811,-20.131982,1826.057,,,,,,,,mg DM m-2 y-1,,,,,1232.667969,6137.642085,0.018487156,1.330000043,38.33333206,52.25,52.44565217,4,,6120712210,0.1,1.52,3.93,0,94.44,0,0,216,1519,63,14078,554,0.885999978,198,979,3.657999992,19,5,42,42,52,52
Linares_2018_open1,,-46.8811,-20.131982,53205.32,,,,,,,,mg DM m-2 y-1,No info on insects. Coords for the whole area. Authors not responding,,,for,1232.667969,6137.642085,0.018487156,1.330000043,38.33333206,52.25,52.44565217,4,,6120712210,0.1,1.52,3.93,0,94.44,0,0,216,1519,63,14078,554,0.885999978,198,979,3.657999992,19,5,42,42,52,52
Linares_2018_open2,,-46.8811,-20.131982,12884.55,,,,,,,,mg DM m-2 y-1,,,,,1232.667969,6137.642085,0.018487156,1.330000043,38.33333206,52.25,52.44565217,4,,6120712210,0.1,1.52,3.93,0,94.44,0,0,216,1519,63,14078,554,0.885999978,198,979,3.657999992,19,5,42,42,52,52
Linares_2018_open3,,-46.8811,-20.131982,30944.31,,,,,,,,mg DM m-2 y-1,,,,,1232.667969,6137.642085,0.018487156,1.330000043,38.33333206,52.25,52.44565217,4,,6120712210,0.1,1.52,3.93,0,94.44,0,0,216,1519,63,14078,554,0.885999978,198,979,3.657999992,19,5,42,42,52,52
Linares_2018_open4,,-46.8811,-20.131982,34797.92,,,,,,,,mg DM m-2 y-1,,,,,1232.667969,6137.642085,0.018487156,1.330000043,38.33333206,52.25,52.44565217,4,,6120712210,0.1,1.52,3.93,0,94.44,0,0,216,1519,63,14078,554,0.885999978,198,979,3.657999992,19,5,42,42,52,52
Lugthart_Wallace_1992_CoweetaCatchment53_Yr1,138,-83.46,35.035,13.99,11.34,0.31,1.08,2.93,,,,g AFDM m-2 yr-1,"Coweeta, North Carolina Catchment 53, Year 1: before pesticide.",,,Table 3,1103.365162,4892.573408,0.019639114,1.399999976,24,48.50925926,49.22222222,4,,7121124440,0.03,99.41,0.43,0,0.06,0.08,0,210,1836,137,767,909,3.417000055,117,893,5.153999805,100,1,38,38,48,48
Lugthart_Wallace_1992_CoweetaCatchment54_Yr1,139,-83.466,35.035,11.49,9.88,0.63,2.21,1.85,,,,g AFDM m-2 yr-1,"Coweeta, North Carolina Catchment 5r, Year 1: before pesticide",,,Table 3,1132.671445,4849.087285,0.019746489,1.399999976,24,48.39090909,49.13636364,4,,7121124440,0.03,99.57,0.31,0,0.04,0.05,0,210,1836,137,767,909,3.417000055,117,893,5.153999805,100,1,38,38,48,48
Lugthart_Wallace_1992_CoweetaCatchment54_Yr2,140,-83.466,35.035,4.4,1.99,,,0.08,,,,g AFDM m-2 yr-1,"Coweeta, North Carolina Catchment 54, Year 2: after pesticide",,,Table 3,1132.671445,4849.087285,0.019746489,1.399999976,24,48.39090909,49.13636364,4,,7121124440,0.03,99.57,0.31,0,0.04,0.05,0,210,1836,137,767,909,3.417000055,117,893,5.153999805,100,1,38,38,48,48
Lugthart_Wallace_1992_CoweetaCatchment55_Yr1,141,-83.457,35.049,8.86,7.61,0.45,1.67,1.59,,,,g AFDM m-2 yr-1,"Coweeta, North Carolina Catchment 55, Year 1: before pesticide",,,Table 3,1075.13125,4904.289978,0.019568942,1.399999976,24,48.79090909,49.48181818,4,,7121121760,0.05,99.32,0.49,0,0.04,0.1,0,196,1912,145,820,952,3.895999908,102,1192,4.573999882,100,1,51,51,53,53
Lugthart_Wallace_1992_CoweetaCatchment55_Yr2,142,-83.457,35.049,10.1,8.46,0.11,1.08,1.71,,,,g AFDM m-2 yr-1,"Coweeta, North Carolina Catchment 55, Year 2: after pesticide",,,Table 3,1075.13125,4904.289978,0.019568942,1.399999976,24,48.79090909,49.48181818,4,,7121121760,0.05,99.32,0.49,0,0.04,0.1,0,196,1912,145,820,952,3.895999908,102,1192,4.573999882,100,1,51,51,53,53
Mann_EtAl_1972_Above,,-0.944,51.46,28.9,3.24,,,,3.08,,,g DM m-2 yr-1,"River Thames, England. Upstream of River Kennet. Data provided in kcal were converted to g by dividing by 5, following Waters (1977).",60,,Table 2,57.92447917,407.1618161,0.030687849,1.364041633,24.32162285,61.53030303,61.37878788,12,,2121118720,25.18,3.05,16.95,0,4.67,49.06,1.08,168,704,19,620,269,306.3540039,95,129,59.18000031,0,42,315,296,270,277
Mann_EtAl_1972_Below,,-0.953,51.46,27.4,0.74,,,,0.62,,,g DM m-2 yr-1,"River Thames, England. Downstream of River Kennet. Data provided in kcal were converted to g by dividing by 5, following Waters (1977).",60,,Table 2,58.67621528,405.4721377,0.031425753,1.366349971,24.5369606,61.98387097,61.80645161,12,,2121118720,25.27,2.81,16.21,0,4.81,49.82,1.08,168,704,19,620,269,306.3540039,95,129,59.18000031,0,42,315,296,270,277
Maslin_Pattee_1981_L'Ance_du_Nord,,3.907,45.412,12140,,,,,,,,mg DM m-2 y-1,"L’Ance du Nord, a small river in France",10,,Table 4,910.4155273,778.0579705,0.018314246,1.450000048,12.66666698,58.359375,58.1875,3,,2121183820,17.5,36.16,30.22,0,14.59,1.54,0,170,740,67,450,305,22.49699974,85,831,3.674999952,42,9,108,115,58,77
McCutchan_Lewis_2002_Alpine_9495,79,-105.63,40.23,5780,,1810,407,711,1736,104,,mg DM m-2 yr-1,"1994 to 1995: """"Other taxa"""" in Appendix 1...not clear if that is only insects or not. It was left out ",,,Appendix Table 1/ Table 2,3474.134004,785.8686516,0.019261142,1.312000036,18.39999962,54.39830508,54.77966102,3,,7120535210,0,23.61,6,0,70.07,0,0.31,108,682,184,4764,91,5.368999958,-6,3204,0.527999997,97,0,26,26,26,26
McCutchan_Lewis_2002_Alpine_9596,79,-105.63,40.23,4710,,1353,545,86,1056,253,,mg DM m-2 yr-1,"1995 to 1996: """"Other taxa"""" in Appendix 1...not clear if that is only insects or not. It was left out ",,,Appendix Table 1/ Table 2,3474.134004,785.8686516,0.019261142,1.312000036,18.39999962,54.39830508,54.77966102,3,,7120535210,0,23.61,6,0,70.07,0,0.31,108,682,184,4764,91,5.368999958,-6,3204,0.527999997,97,0,26,26,26,26
McCutchan_Lewis_2002_Foothills_9495,80,-105.44,40.21,1210,,2980,592,5297,1358,602,,mg DM m-2 yr-1,"1994 to 1995: """"Other taxa"""" in Appendix 1...not clear if that is only insects or not. It was left out ",,,Appendix Table 1/ Table 2,2408.512182,345.3425127,0.01715942,1.312000036,18.39999962,61,61.26271186,3,,7121069180,0.13,87.58,9.49,0,2.75,0.05,0,153,462,135,688,68,8.498000145,42,2494,0.273999989,100,0,45,45,49,49
McCutchan_Lewis_2002_Foothills_9596,80,-105.44,40.21,1010,,3759,1263,1978,817,1187,,mg DM m-2 yr-1,"1995 to 1996: """"Other taxa"""" in Appendix 1...not clear if that is only insects or not. It was left out ",,,Appendix Table 1/ Table 2,2408.512182,345.3425127,0.01715942,1.312000036,18.39999962,61,61.26271186,3,,7121069180,0.13,87.58,9.49,0,2.75,0.05,0,153,462,135,688,68,8.498000145,42,2494,0.273999989,100,0,45,45,49,49
McCutchan_Lewis_2002_Montane_9495,81,-105.52,40.21,8110,,2859,547,1832,941,947,,mg DM m-2 yr-1,"1994 to 1995: """"Other taxa"""" in Appendix 1...not clear if that is only insects or not. It was left out ",,,Appendix Table 1/ Table 2,2684.759814,442.2931734,0.018143258,1.312000036,18.39999962,58.63559322,59.11864407,3,,7121069180,0,90.68,7.97,0,1.28,0.07,0,153,462,135,688,68,8.498000145,42,2494,0.273999989,100,0,45,45,49,49
McCutchan_Lewis_2002_Montane_9596,81,-105.52,40.21,6340,,2378,689,628,838,651,,mg DM m-2 yr-1,"1995 to 1996: """"Other taxa"""" in Appendix 1...not clear if that is only insects or not. It was left out ",,,Appendix Table 1/ Table 2,2684.759814,442.2931734,0.018143258,1.312000036,18.39999962,58.63559322,59.11864407,3,,7121069180,0,90.68,7.97,0,1.28,0.07,0,153,462,135,688,68,8.498000145,42,2494,0.273999989,100,0,45,45,49,49
McCutchan_Lewis_2002_Subalpine_9495,82,-105.63,40.21,4710,,729,749,255,1421,894,,mg DM m-2 yr-1,"1994 to 1995: """"Other taxa"""" in Appendix 1...not clear if that is only insects or not. It was left out ",,,Appendix Table 1/ Table 2,3416.766529,758.9005042,0.019592935,1.312000036,18.39999962,54.06666667,54.43333333,4,,7120535210,0,33.33,5.71,0,60.66,0,0.3,108,682,184,4764,91,5.368999958,-6,3204,0.527999997,97,0,26,26,26,26
McCutchan_Lewis_2002_Subalpine_9596,82,-105.63,40.21,3330,,666,507,249,1090,450,,mg DM m-2 yr-1,"1995 to 1996: """"Other taxa"""" in Appendix 1...not clear if that is only insects or not. It was left out ",,,Appendix Table 1/ Table 2,3416.766529,758.9005042,0.019592935,1.312000036,18.39999962,54.06666667,54.43333333,4,,7120535210,0,33.33,5.71,0,60.66,0,0.3,108,682,184,4764,91,5.368999958,-6,3204,0.527999997,97,0,26,26,26,26
Mello_etal2020_Broa,,-47.8988333,-22.1947,11030,,180,,4460,,1020,,mg AFDM m-2 y-1,*Ash free dry mass* . I have mailed the author.,0.84,,dry,739.373067,5634.361459,0.011427464,1.373332977,38.66666794,52.79545455,52.79545455,6,,6120743870,13.38,19.02,15.19,0,44,1.63,6.78,224,1376,38,7314,472,24.47400093,199,738,9.717000008,4,25,78,106,98,133
Mello_etal2020_Chanchim,,-47.8427,-21.9668667,13560,,280,,3390,,4180,,mg AFDM m-2 y-1,*Ash free dry mass* . I have mailed the author.,1.16,,dry,832.5638021,5980.672094,0.010372566,1.373332977,38.66666794,53.37894737,53.35789474,6,,6121262980,29.19,18.46,18.15,0,28.08,6.1,0.03,221,1426,32,6985,481,1594.572998,195,829,2.048000097,3,28,268,268,303,303
Mello_etal2020_Espraiado,,-47.8736333,-21.9805167,13050,,1350,760,3800,,1470,,mg AFDM m-2 y-1,*Ash free dry mass* . I have mailed the author.,0.57,,dry,857.6958763,5996.462601,0.008921065,1.373332977,38.66666794,53.2,53.225,6,,6121261690,14.99,12.44,15.87,0,28.46,28.22,0.01,225,1395,33,15793,475,98.86799622,200,746,2.111000061,6,54,152,152,172,172
Meyerhoff_1991_Clearwater,,-122.064786,46.289031,15.05,,,,,,,,g AFDM m-2 y-1,Third-order stream in Washington after volcanic eruption. Mean of 1985 and 1986 values.,,21.9,Table 5.10,1105.472384,1833.716883,0.020230043,1.119523713,13.42857156,52.015625,52.25,1,,7121000920,0,63.84,30.41,0,5.68,0.02,0.04,144,2589,168,6478,1567,0.114,63,985,9.225000381,97,0,15,15,14,14
Meyerhoff_1991_Elk,,-121.94326,46.28689,10.3,,,,,,,,g AFDM m-2 y-1,Second-order stream in Washington after volcanic eruption. Mean of 1985 and 1986 values.,,10.4,Table 5.10,1162.390504,1827.426619,0.024440729,1.162083238,16.83333325,50.87692308,51.88461538,2,,7120381040,0,99.78,0.22,0,0,0,0,149,2430,155,1041,1527,0,64,977,6.090000153,100,0,0,0,0,0
Miller_1985_Site1,83,-79.51,37.9,1.81,0.84,0.17,0.44,0.05,,,,g DM m-2 yr-1,"From article: """"Production estimates obtained by multiplying an assumed annual turnover ratio by average standing biomass are indicated by (t). All others were calculated using the size-frequency method.""""",3,,"Tables 2,3,4,5",635.1902412,3022.945794,0.02850184,1.345555504,22.33333206,50.75454545,51.50909091,6,,7121094630,4.03,83.1,9.67,0,3.08,0.12,0,226,1059,92,1935,410,7.363999844,117,484,15.67300034,77,25,86,61,79,60
Miller_1985_Site2,84,-79.5,37.92,12.46,11.92,0.74,0.74,9.74,,,,g DM m-2 yr-1,"From article: """"Production estimates obtained by multiplying an assumed annual turnover ratio by average standing biomass are indicated by (t). All others were calculated using the size-frequency method.""""",5.3,,"Tables 2,3,4,5",656.6465909,2979.323824,0.028228524,1.346223876,22.33333206,49.32173913,50.13043478,6,,7121094630,0.39,95.53,3.36,0,0.62,0.1,0,226,1059,92,1935,410,7.363999844,117,484,15.67300034,77,25,86,61,79,60
Miller_1985_Site3,85,-79.48,37.94,9.52,8.16,0.58,0.29,6.62,,,,g DM m-2 yr-1,"From article: """"Production estimates obtained by multiplying an assumed annual turnover ratio by average standing biomass are indicated by (t). All others were calculated using the size-frequency method.""""",6.1,,"Tables 2,3,4,5",608.0479526,3032.168579,0.028742852,1.339553441,22.33333206,49.72321429,50.50892857,6,,7121094630,0.31,92.94,4.77,0,0.39,0.3,1.29,226,1059,92,1935,410,7.363999844,117,484,15.67300034,77,25,86,61,79,60
Miller_1985_Site4,86,-79.47,37.95,5.54,3.98,0.88,0.32,2.24,,,,g DM m-2 yr-1,"From article: """"Production estimates obtained by multiplying an assumed annual turnover ratio by average standing biomass are indicated by (t). All others were calculated using the size-frequency method.""""",5.6,,"Tables 2,3,4,5",578.1604873,3063.908205,0.029569136,1.339553441,22.33333206,50.24299065,51.04672897,6,,7121094630,0.51,89.74,6.99,0,0.93,0.36,1.47,226,1059,92,1935,410,7.363999844,117,484,15.67300034,77,25,86,61,79,60
Miller_1985_SitePB,87,-79.49,37.93,3.81,1.29,0.13,0.79,0,,,,g DM m-2 yr-1,"From article: """"Production estimates obtained by multiplying an assumed annual turnover ratio by average standing biomass are indicated by (t). All others were calculated using the size-frequency method.""""",2.9,,"Tables 2,3,4,5",631.9408482,3008.70637,0.028372012,1.344791583,22.33333206,49.5,50.31578947,6,,7121094630,0.24,95.14,3.55,0,0.47,0.16,0.45,226,1059,92,1935,410,7.363999844,117,484,15.67300034,77,25,86,61,79,60
Mortensen_Simonsen_1983_BisballeBaek,197,9.333,56.367,22.518,,,,,,,,g AFDM m-2,Small stream in Denmark.,1,,Table 2,54.99504573,544.1690318,0.016234004,1.166257119,11.54142828,57.56081081,57.58783784,5,,2121079200,50.02,30.03,13.26,0,0.95,1.83,3.9,156,772,7,193,613,30.37400055,75,40,8.534999847,21,58,159,168,109,115
Nakano_Murakami_2001,,141.596,42.676,,,,,,,,1160.446,mg DM m-2 y-1,"Sum of daily measurements multiplied by number of days in  each of 12 months, Figure 1C",,,"Aquatic to Terrestrial Flux, extracted from Figure 1C ",36.08993902,1638.391556,0.032526766,1.022500038,17.75,54.61290323,54.66666667,5,,4120361260,0.8,69.99,0.69,0,3.35,23.81,1.37,210,1110,16,727,918,295.1340027,70,54,6.356999874,82,10,259,259,272,272
Naslund_2021_unmined,,-82.003,38.129,14870.36563,,,,,,,,mg DM m-2 y-1,Study on contamination- Values are from reference streams,,,on,312.0127212,3704.699857,0.033032448,1.369617999,22.00347201,50.24561404,50.62280702,6,1.274764277,7120582410,0.98,87.75,4.65,0,6.47,0.16,0,232,1149,88,2315,358,14.68000031,119,303,2.760999918,99,4,53,53,56,56
Nelson_2023_G1,,-109.414873,40.907225,86709.32,17381.48,270.82,,48.96,14222.2,2839.5,,mg DM m-2 y-1,Green river. Sites downstream Flaming Gorge Dam. Exact location could be retrieved from Fig1 and GoogleMap. Stream size also estimated from map,30,,Gorge Dam. Exact location could be retrieved from Fig1,2024.186441,330.6548882,0.029934155,1.273853966,22.06696429,73.83783784,74.54954955,6,,7121062760,0,27.99,32.45,0,34.57,0.24,4.76,185,307,47,1150,52,1.684999943,53,2190,97.79100037,86,1,27,40,28,41
Nelson_2023_G2,,-109.370054,40.902482,46606.98,26773.89,11779.89,790.89,2665.72,7059.71,4477.68,,mg DM m-2 y-1,Green river. Sites downstream Flaming Gorge Dam. Exact location could be retrieved from Fig1 and GoogleMap. Stream size also estimated from map,30,,Gorge Dam. Exact location could be retrieved from Fig1,2088.319853,340.3246945,0.030317797,1.27677083,22.44196429,73.28571429,73.98319328,6,,7120518420,0,28.89,27.48,0,43.46,0.17,0,184,307,48,1150,57,1.679999948,52,2216,98.00900269,73,1,29,40,30,41
Nelson_2023_G3,,-109.328782,40.91117,29673.61,15211.96,4405.24,1021,1123,5571.37,3091.35,,mg DM m-2 y-1,Green river. Sites downstream Flaming Gorge Dam. Exact location could be retrieved from Fig1 and GoogleMap. Stream size also estimated from map,30,,Gorge Dam. Exact location could be retrieved from Fig1,2049.497374,342.3400387,0.029895222,1.283958401,23.36607143,74.20833333,74.91666667,6,,7120518420,0,21.63,24.52,0,53.85,0,0,184,307,48,1150,57,1.679999948,52,2216,98.00900269,73,1,29,40,30,41
Nelson_2023_G4,,-109.272513,40.911535,55477.45,32560.33,11709.75,5879.17,1318.87,6358.67,7293.87,,mg DM m-2 y-1,,35,,,2012.076042,352.2171405,0.029345376,1.284999967,23.5,75.09917355,75.8677686,6,,7121063220,0,22.1,36.14,0,41.76,0,0,194,280,48,1154,60,1.656000018,61,2022,99.10800171,50,2,43,40,45,41
Nelson_2023_G5,,-109.17069,40.89974,50200.06,43635.5,9213.76,6200,5756.47,18282.51,4182.76,,mg DM m-2 y-1,Green river. Sites downstream Flaming Gorge Dam. Exact location could be retrieved from Fig1 and GoogleMap. Stream size also estimated from map,45,,Gorge Dam. Exact location could be retrieved from Fig1,1835.278689,402.4698784,0.03101378,1.335468809,22.79166667,77.31355932,77.83050847,6,,7121063520,0.32,9.77,21.24,0,68.41,0,0.26,186,295,48,1155,61,1.65199995,55,2139,99.31800079,42,2,40,40,41,41
Nelson_2023_G6,,-109.140999,40.86484,49931.26,40886.51,6714.07,7841.65,5855.45,10029.65,10445.69,,mg DM m-2 y-1,Green river. Sites downstream Flaming Gorge Dam. Exact location could be retrieved from Fig1 and GoogleMap. Stream size also estimated from map,50,,Gorge Dam. Exact location could be retrieved from Fig1,1786.578526,424.2099476,0.031807628,1.422410727,21.57142857,77.40336134,78.06722689,6,,7121063520,0.32,12.97,18.74,0,67.74,0,0.24,186,295,48,1155,61,1.65199995,55,2139,99.31800079,42,2,40,40,41,41
Nelson_2023_G7,,-109.032842,40.828568,8908.02,6808.83,896.22,,41.53,2904.14,2966.94,,mg DM m-2 y-1,Green river. Sites downstream Flaming Gorge Dam. Exact location could be retrieved from Fig1 and GoogleMap. Stream size also estimated from map,50,,Gorge Dam. Exact location could be retrieved from Fig1,1845.758781,446.4366308,0.029675081,1.42750001,21.5,76.50847458,77.16949153,6,,7121064110,0.39,21.58,18.37,0,59.36,0,0.29,195,272,49,1158,60,1.636999965,62,1961,100.7340012,49,2,44,40,44,41
Nelson_Scott_1962_Oconee,,-83.406099,33.927,90,,,,,,,,g AFDM m-2 y-1,"Middle Oconee River, Georgia, USA. Site re-used in Grubaugh and Wallace (1995), with somewhat different methods and decades later. Values here are from Nelson and Scott 1962, based on a recalculation done in the Grubaugh and Wallace text.",4.27,1030.82,Text in Grubaugh and Wallace (1995).,212.6244213,4953.042137,0.028378115,1.377589004,22.68749891,53.74193548,53.72043011,4,,7120684080,0.94,43.73,22.34,0,3.91,29.02,0.07,262,1248,23,1217,420,184.1289978,163,216,18.97100067,78,20,306,227,318,268
Neres-Lima2017,,-42.31,-22.14,,1762,,,,,,,mg DM m-2 y-1,Mean across streams,,,Mean,623.5820313,6837.970947,0.013369191,1.373332977,38.66666794,52.57291667,52.45833333,4,,6120741740,0.44,36.25,25.19,0,38.1,0,0.03,243,1429,128,21466,430,56.41699982,211,478,2.210000038,1,4,109,109,174,174
Neves_1979_FactoryBrook,88,-73.03,42.34,4560,,2419.1,339.7,912.3,477.4,412.85,,mg DM m-2 yr-1,"Factory Brook, Massachusetts, USA. Averaged separate values provided for each of two years (1974 and 1975).",4.75,22,Table 3,457.1910569,2057.294231,0.026168267,1.363332987,10,45.54032258,46.96774194,4,,7120485060,0.29,98.64,0.98,0,0.03,0.06,0,201,1218,65,166,808,14.85099983,71,388,6.416999817,100,1,102,89,113,97
Paqualini_et_al_2023,,10.730833,51.805833,12017,12017,475,423,1071,9622,426,,mg DM m-2 y-1,2nd order streams. Data taken from combined benthos and freeze-core sampling (complete data as for authors),,,Data taken from combined benthos and freeze-core,470.3788527,529.9028409,0.030109952,1.347273004,18.20659704,52.44444444,52.62222222,9,,2121114730,10.27,77.89,4.33,0,0.31,6.95,0.24,164,740,45,413,269,118.4990005,77,327,1.309999943,33,54,175,175,180,180
Popperl_1996,,10.242,54.115,128.9,11,1,,1.2,6.7,115.7,,g DM m-2 yr-1,"Lake outflow stream, Germany. Average across 11 sites within  ~ 2km.",6,,Table 5,41.23560855,319.7080696,0.020167425,1.363874992,14.90625,57.8540146,57.32116788,9,,2121094990,69.4,9.46,7.55,0,2.9,6.38,4.31,165,766,4,84,477,301.7120056,80,33,2.447999954,6,55,266,266,230,230
Raitif_et_al_2018,,-1.628547354,48.1113031,,,,,,,,4048.365,mg DM m-2 y-1,"Sum cumulative emergence, Figure 1 Right",,,Coordinates Not given in article. The coordinates reflect the  Ille-et-Vilaine region in Brittany,46.53492647,362.2455002,0.037338589,1.37952401,20.95635114,61.28205128,61.11538462,6,,2120481490,29.41,3.08,20.99,0,3.09,43.43,0,181,709,14,785,479,124.2480011,113,40,11.63899994,1,73,296,192,307,218
Ramirez_Pringle_1998_Sabalo,213,-84.017,10.433,,,93.68,,5.09,74.47,21.38,,mg AFDM m-2 yr-1,Size-Freq method. Habitat-weighted. Tropical. Only 8 taxa with prod (20% of insect biomass),5,,Only 8 taxa with prod (20,76.03872283,8646.681189,0.020417431,1.269704819,36.734375,51.61111111,51.68888889,6,,7121221100,27.03,54.55,16.15,0,0.79,1.49,0,271,3898,92,1845,2353,50.40200043,258,107,162.1360016,71,4,113,95,136,113
Ramirez_Pringle_1998_Sabalo,,-84.017,10.433,,,209.365,,6.95,57.885,181.255,,mg AFDM m-2 yr-1,Benke model method. Mean Riffle + Pool,5,,Mean Riffle,76.03872283,8646.681189,0.020417431,1.269704819,36.734375,51.61111111,51.68888889,6,,7121221100,27.03,54.55,16.15,0,0.79,1.49,0,271,3898,92,1845,2353,50.40200043,258,107,162.1360016,71,4,113,95,136,113
Ramirez_Pringle_1998_Sabalo,,-84.017,10.433,,363.65,,,,,,,mg AFDM m-2 yr-1,Total AISP combining both methods above.,,,AISP combining both,76.03872283,8646.681189,0.020417431,1.269704819,36.734375,51.61111111,51.68888889,6,,7121221100,27.03,54.55,16.15,0,0.79,1.49,0,271,3898,92,1845,2353,50.40200043,258,107,162.1360016,71,4,113,95,136,113
Reinert_2021_Beav,,-112.102186,44.691882,4590.839899,,,,,,,,mg AFDM m-2 y-1,actual beaver,,,,2110.688004,373.3769222,0.027035967,1.239642876,22.85714286,68.96062992,70.73228346,5,,7121020480,0,0.06,0.13,0,99.81,0,0,143,428,67,884,172,0.01,16,2239,8.505000114,57,4,15,11,15,10
Reinert_2021_Mim,,-112.108194,44.65696,3045.685746,,,,,,,,mg AFDM m-2 y-1,beaver mimic,,,,2037.311012,358.5370439,0.028371686,1.245000005,22,71.01587302,72.8015873,5,,7121020480,0.15,0,0,0,99.85,0,0,143,428,67,884,172,0.01,16,2239,8.505000114,57,4,15,11,15,10
Reinert_2021_Ref,,-112.101842,44.693957,1488.744676,,,,,,,,mg AFDM m-2 y-1,reference,,,,2120.014764,372.7475364,0.026986208,1.239642876,22.85714286,68.83739837,70.60162602,5,,7121020480,0,0.15,0.2,0,99.65,0,0,143,428,67,884,172,0.01,16,2239,8.505000114,57,4,15,11,15,10
Ringe_1974_Breitenbach,,7.594246839,49.5458468,,,,,,,,5.44,g DM m-2 y-1,Emergence from Table 5 in Fisher and Jackson 1986. Coordinates from google maps,,,Jackson 1986,342.254946,254.5035373,0.033438828,1.251645833,30.89166689,62.91791045,62.92537313,4,,2120438400,38.98,32.21,21.1,0,2.5,5.21,0,168,689,63,290,256,184.2839966,84,316,6.511000156,13,40,203,241,165,206
Ringe_1974_Rohrwiesenbach,,9.397019229,49.90967247,,,,,,,,3.17,g DM m-2 y-1,Emergence from Table 5 in Fisher and Jackson 1986. Coordinates from google maps,,,Jackson 1986,437.0445144,488.7384282,0.032090996,1.223333001,17,52.2173913,52.27536232,6,,2120433550,1.15,93.34,3.67,0,0.58,1.27,0,179,728,84,277,267,124.5130005,89,344,1.320000052,72,8,161,161,132,132
Robinson_Minshall_1998_BirchCreek,89,-112.88,44.11,,45.4,6.671,1.95,6.01,,5.44,,g DM m-2 yr-1,Lists width as 8-12 m. otherSp is only Coleoptera. Only insects were considered in this study.,10,,Table 3,1886.758366,363.2710353,0.030655802,1.44333303,21.33333206,77.0390625,78.5859375,5,,7120442800,1.13,1.38,2.6,0,94.89,0,0,179,269,70,1799,102,0,41,1845,0.36500001,9,2,37,37,37,37
Robinson_Minshall_1998_LittleLostRiver,90,-113.21,44,,74.2,8.77,2.25,3.73,,0.27,,g DM m-2 yr-1,Lists width as 5-10 m. otherSp is only Coleoptera. Only insects were considered in this study.,7.5,,Table 3,1696.677083,375.7128353,0.031769475,1.44333303,21.33333206,78.53543307,80.35433071,5,,7120441820,8.71,0,0,0,91.29,0,0,172,288,124,3488,128,0.026000001,38,1913,6.578000069,35,4,10,13,15,14
Rosas_2020_Gatos,,-65.75,18.316667,,591.5,387.19,,121.75,82.56,,,mg DM m-2 y-1,"1st order tropical streams, NOTE, the taxa included are 70% of overall biomass!",,,"NOTE, the taxa included are 70",364.1447011,10176.75309,0.021155649,1.322416592,38.62708359,50.35294118,50.37647059,11,,7120073120,0,80.7,17.72,0,0.6,0.99,0,256,2295,68,4581,803,448.6730042,241,222,3.811000109,55,6,304,304,298,298
Rosas_2020_Prieta,,-65.75,18.316667,,528.54,275.67,,191.98,60.89,,,mg DM m-2 y-1,,,,,364.1447011,10176.75309,0.021155649,1.322416592,38.62708359,50.35294118,50.37647059,11,,7120073120,0,80.7,17.72,0,0.6,0.99,0,256,2295,68,4581,803,448.6730042,241,222,3.811000109,55,6,304,304,298,298
Rundio_Lindley_2020_BigCreek,,-121.59,36.07505,,,,,,,,7810,mg DM m-2 y-1,California Mediterranean streams.,,,,363.8141447,1511.253622,0.022143699,1.389999986,31.25,61.23611111,61.30555556,8,,7120013090,0,39.36,18.77,0,8.98,0.01,32.88,168,554,149,2003,256,5.919000149,122,543,4.53399992,100,4,33,71,34,72
Rundio_Lindley_2020_DevilsCreek,,-121.59,36.07505,,,,,,,,5340,mg DM m-2 y-1,California Mediterranean streams.,,,,363.8141447,1511.253622,0.022143699,1.389999986,31.25,61.23611111,61.30555556,8,,7120013090,0,39.36,18.77,0,8.98,0.01,32.88,168,554,149,2003,256,5.919000149,122,543,4.53399992,100,4,33,71,34,72
Sanjaya_etal_2015_S1,,80.496222,6.304444,8.43,,,,,,,,g AFDM m-2 yr-1,"Wathurawa agricultural stream site S1, Sri Lanka. Upstream site only.",,,Text page 221,360.2836538,8300.794494,0.016704021,1.329437423,22.88750076,51.84615385,52.13186813,4,,4121159870,0.36,96.43,2.9,0,0,0.31,0,264,3093,109,2051,1316,398.1170044,255,273,5.853000164,58,48,190,190,135,135
Sanjaya_etal_2015_S4,,80.497556,6.302606,3.95,,,,,,,,g AFDM m-2 yr-1,"Wathurawa agricultural stream site S4, Sri Lanka. Upstream site only.",,,Text page 221,356.4501404,8316.187312,0.016470607,1.329437423,22.88750076,51.85393258,52.14606742,4,,4121159870,0.34,96.16,3.13,0,0,0.36,0,264,3093,109,2051,1316,398.1170044,255,273,5.853000164,58,48,190,190,135,135
Shieh_EtAl_2002_CacheLaPoudreRiver_Site1,91,-105.08,40.59,26012,,,,,,,,mg AFDM m-2 yr-1,"Cache la Poudre River, Colorado.",,,Table 4,1530.232955,576.8067647,0.02764968,1.304687291,20.59375,73.54166667,74.75,5,,7120526350,8.07,0,5.94,0,30.44,51.24,4.31,217,370,89,875,57,40.99900055,90,1533,3.770999908,48,22,357,47,360,55
Shieh_EtAl_2002_CacheLaPoudreRiver_Site2,92,-105.05,40.58,61693,,,,,,,,mg AFDM m-2 yr-1,"Cache la Poudre River, Colorado.",,,Table 4,1517.903602,585.0552373,0.026780459,1.303333044,21,73.92957746,75.09859155,5,,7120528280,13.79,0,4.75,0,31.21,47.18,3.06,220,361,76,795,45,39.7519989,92,1514,5.379000187,10,55,245,58,271,69
Shieh_EtAl_2002_CacheLaPoudreRiver_Site3,93,-105.03,40.57,50939,,,,,,,,mg AFDM m-2 yr-1,"Cache la Poudre River, Colorado.",,,Table 4,1509.105932,589.9566395,0.026114788,1.303333044,21,74.54878049,75.6097561,5,,7120528280,17.69,0,3.17,0,38.26,38.39,2.48,220,361,76,795,45,39.7519989,92,1514,5.379000187,10,55,245,58,271,69
Shieh_EtAl_2003_CacheLaPoudreRiver_Site4,97,-105,40.54,48.4,,,,,,,,g AFDM m-2 yr-1,"Cache la Poudre River, Colorado. Total production values here are fine. Specific taxon production is available in Table 3 but only for """"first three dominant taxa"""", and listed only by percentage of total production and thus can't be used. Data also available for Sites 1-3, but these correspond well with data from Shieh et al. 2002 also in this dataset, so not duplicated here.",,,Fig 1,1494.995233,598.7564542,0.026282621,1.303333044,21,75.66666667,76.62222222,5,,7120528360,16.5,0,1.54,0,53.86,22.28,5.81,218,370,16,377,50,421.5740051,91,1535,0.204999998,13,20,307,307,330,330
Shieh_EtAl_2003_CacheLaPoudreRiver_Site5,98,-104.99,40.53,52.2,,,,,,,,g AFDM m-2 yr-1,"Cache la Poudre River, Colorado. Total production values here are fine. Specific taxon production is available in Table 3 but only for """"first three dominant taxa"""", and listed only by percentage of total production and thus can't be used. Data also available for Sites 1-3, but these correspond well with data from Shieh et al. 2002 also in this dataset, so not duplicated here.",,,Fig 1,1490.601366,600.4470696,0.026264751,1.303333044,21,76.14583333,77.09375,5,,7120528360,18.82,0,1.16,0,57.5,15.85,6.66,218,370,16,377,50,421.5740051,91,1535,0.204999998,13,20,307,307,330,330
Shieh_EtAl_2003_CacheLaPoudreRiver_Site6,99,-104.98,40.51,32,,,,,,,,g AFDM m-2 yr-1,"Cache la Poudre River, Colorado. Total production values here are fine. Specific taxon production is available in Table 3 but only for """"first three dominant taxa"""", and listed only by percentage of total production and thus can't be used. Data also available for Sites 1-3, but these correspond well with data from Shieh et al. 2002 also in this dataset, so not duplicated here.",,,Fig 1,1487.72469,602.0910537,0.026646584,1.303333044,21,76.41584158,77.41584158,5,,7120529270,22.99,0,1.1,0,55.5,12.77,7.64,223,355,73,779,36,54.30500031,94,1490,5.419000149,14,47,241,69,317,81
Silina_etal_2023,,44.419671,52.8254,7385,,,,,,,,mg wet mass m-2 yr-1,Wet mass. River - beaver pond,,,,189.0127467,218.895077,0.029568579,1.230000019,44,63.27027027,63.72297297,12,,2120359930,71.59,10.18,11.59,0,6.63,0,0,200,520,10,328,113,16.80999947,48,184,4.008999825,0,75,155,139,158,141
Silina_etal_2023,,44.419671,52.8254,,,,,,,,2215,mg DM m-2 yr-1,,,,,189.0127467,218.895077,0.029568579,1.230000019,44,63.27027027,63.72297297,12,,2120359930,71.59,10.18,11.59,0,6.63,0,0,200,520,10,328,113,16.80999947,48,184,4.008999825,0,75,155,139,158,141
Singer2007_Kleine_Erlauf_ref,,16.016667,48.983333,47862.2,40358.1,11615.2,2643.6,2807.5,11880.3,11411.5,,mg DM m-2 y-1,reference reach,5.9,,,353.3005515,471.4595054,0.032790253,1.33322223,20.68888876,62.84090909,63.90909091,4,,2120457590,63.18,25.1,8.65,0,0.02,3.05,0,184,592,23,999,118,56.42200089,87,293,1.687000036,4,85,174,179,154,151
Singer2007_Kleine_Erlauf_sub,,15.016667,47.983333,85601.7,64068.6,19881,5307.1,4171.9,26612.5,8096.1,,mg DM m-2 y-1,subsidised reach,6.4,,,555.5643382,776.2014815,0.028801608,1.359953668,26.1504631,55.74418605,56.37984496,12,,2120478240,24.14,57.78,8.49,0,6.99,2.59,0,174,866,114,639,677,58.80500031,75,510,3.747999907,91,21,133,133,116,116
